[
  {
    "Code": "0111070010",
    "ZhInfo": {
      "Region": "台北區",
      "County": "基隆市",
      "District": "信義區",
      "Name": "衛生福利部基隆醫院",
      "Address": "基隆市信義區信二路２６８號"
    },
    "EnInfo": {
      "Region": "Taipei Region",
      "County": "Keelung City",
      "District": "Xinyi District",
      "Name": "Keelung Hospital, Ministry of Health and Welfare",
      "Address": "No. 268, Xin 2nd Road, Xinyi District, Keelung City, 201"
    },
    "Telephone": "02-24292525",
    "Position": {
      "Longitude": 121.748322,
      "Latitude": 25.130456
    }
  },
  {
    "Code": "1411030013",
    "ZhInfo": {
      "Region": "台北區",
      "County": "基隆市",
      "District": "暖暖區",
      "Name": "醫療財團法人臺灣區煤礦業基金會臺灣礦工醫院",
      "Address": "基隆市暖暖區源遠路２９號"
    },
    "EnInfo": {
      "Region": "Taipei Region",
      "County": "Keelung City",
      "District": "Nuannuan District",
      "Name": "Taiwan Miner's General Hospital",
      "Address": "No. 29, Yuanyuan Road, Nuannuan District, Keelung City, 205"
    },
    "Telephone": "02-24579101",
    "Position": {
      "Longitude": 121.733254,
      "Latitude": 25.107904
    }
  },
  {
    "Code": "0511040010",
    "ZhInfo": {
      "Region": "台北區",
      "County": "基隆市",
      "District": "中正區",
      "Name": "三軍總醫院附設基隆民眾診療服務處",
      "Address": "基隆市中正區正榮街100號"
    },
    "EnInfo": {
      "Region": "Taipei Region",
      "County": "Keelung City",
      "District": "Zhongzheng District",
      "Name": "Tri-Service General Hospital Keelung Branch - Zhengrong Branch",
      "Address": "No. 100, Zhengrong Street, Zhongzheng District, Keelung City, 202"
    },
    "Telephone": "02-24231735",
    "Position": {
      "Longitude": 121.764267,
      "Latitude": 25.144625
    }
  },
  {
    "Code": "0101090517",
    "ZhInfo": {
      "Region": "台北區",
      "County": "臺北市",
      "District": "中正區",
      "Name": "臺北市立聯合醫院-和平院區",
      "Address": "臺北市中正區中華路二段33號"
    },
    "EnInfo": {
      "Region": "Taipei Region",
      "County": "Taipei City",
      "District": "Zhonghua Road",
      "Name": "Taipei City Hospital Heping Branch",
      "Address": "No. 33, Section 2, Zhonghua Road, Zhongzheng District, Taipei City, 100"
    },
    "Telephone": "02-23889595",
    "Position": {
      "Longitude": 121.506986,
      "Latitude": 25.03562226
    }
  },
  {
    "Code": "0101090517",
    "ZhInfo": {
      "Region": "台北區",
      "County": "臺北市",
      "District": "大同區",
      "Name": "臺北市立聯合醫院-中興院區",
      "Address": "臺北市大同區鄭州路145號"
    },
    "EnInfo": {
      "Region": "Taipei Region",
      "County": "Taipei City",
      "District": "Zhonghua Road",
      "Name": "Taipei City Hospital Heping Branch",
      "Address": "No. 33, Section 2, Zhonghua Road, Zhongzheng District, Taipei City, 100"
    },
    "Telephone": "02-25523234",
    "Position": {
      "Longitude": 121.5093209,
      "Latitude": 25.0509696
    }
  },
  {
    "Code": "0101090517",
    "ZhInfo": {
      "Region": "台北區",
      "County": "臺北市",
      "District": "士林區",
      "Name": "臺北市立聯合醫院-陽明院區",
      "Address": "臺北市士林區雨聲街105號"
    },
    "EnInfo": {
      "Region": "Taipei Region",
      "County": "Taipei City",
      "District": "Zhonghua Road",
      "Name": "Taipei City Hospital Heping Branch",
      "Address": "No. 33, Section 2, Zhonghua Road, Zhongzheng District, Taipei City, 100"
    },
    "Telephone": "02-28353456#5145",
    "Position": {
      "Longitude": 121.5315656,
      "Latitude": 25.105194
    }
  },
  {
    "Code": "0101090517",
    "ZhInfo": {
      "Region": "台北區",
      "County": "臺北市",
      "District": "南港區",
      "Name": "臺北市立聯合醫院-忠孝院區",
      "Address": "臺北市南港區同德路87號"
    },
    "EnInfo": {
      "Region": "Taipei Region",
      "County": "Taipei City",
      "District": "Zhonghua Road",
      "Name": "Taipei City Hospital Heping Branch",
      "Address": "No. 33, Section 2, Zhonghua Road, Zhongzheng District, Taipei City, 100"
    },
    "Telephone": "02-27861288",
    "Position": {
      "Longitude": 121.5860755,
      "Latitude": 25.0465327
    }
  },
  {
    "Code": "1101010021",
    "ZhInfo": {
      "Region": "台北區",
      "County": "臺北市",
      "District": "松山區",
      "Name": "基督復臨安息日會醫療財團法人臺安醫院",
      "Address": "臺北市松山區八德路二段424,426號"
    },
    "EnInfo": {
      "Region": "Taipei Region",
      "County": "Taipei City",
      "District": "Songshan District",
      "Name": "Taiwan Adventist Hospital",
      "Address": "No. 424, Section 2, Bade Rd, Songshan District, Taipei City, 105"
    },
    "Telephone": "02-27718151",
    "Position": {
      "Longitude": 121.547339,
      "Latitude": 25.0480541
    }
  },
  {
    "Code": "0501010019",
    "ZhInfo": {
      "Region": "台北區",
      "County": "臺北市",
      "District": "松山區",
      "Name": "三軍總醫院松山分院附設民眾診療服務處",
      "Address": "臺北市松山區健康路１３１號"
    },
    "EnInfo": {
      "Region": "Taipei Region",
      "County": "Taipei City",
      "District": "Songshan District",
      "Name": "Tri-Service General Hospital Songshan Branch",
      "Address": "No. 131, Jiankang Road, Songshan District, Taipei City, 105"
    },
    "Telephone": "02-27642151",
    "Position": {
      "Longitude": 121.557672,
      "Latitude": 25.054373
    }
  },
  {
    "Code": "1101010012",
    "ZhInfo": {
      "Region": "台北區",
      "County": "臺北市",
      "District": "松山區",
      "Name": "長庚醫療財團法人台北長庚紀念醫院",
      "Address": "臺北市松山區敦化北路１９９號"
    },
    "EnInfo": {
      "Region": "Taipei Region",
      "County": "Taipei City",
      "District": "Songshan District",
      "Name": "Taipei Chang Gung Memorial Hospital",
      "Address": "No. 199, DunHua N Rd, Songshan District, Taipei City, 105"
    },
    "Telephone": "02-27135211",
    "Position": {
      "Longitude": 121.5496556,
      "Latitude": 25.0555992
    }
  },
  {
    "Code": "1101110026",
    "ZhInfo": {
      "Region": "台北區",
      "County": "臺北市",
      "District": "內湖區",
      "Name": "康寧醫療財團法人康寧醫院",
      "Address": "臺北市內湖區成功路五段４２０巷２６號"
    },
    "EnInfo": {
      "Region": "Taipei Region",
      "County": "Taipei City",
      "District": "Neihu District",
      "Name": "Kang-Ning General Hospital",
      "Address": "No. 26, Lane 420, Section 5, Chenggong Road, Neihu District, Taipei City, 114"
    },
    "Telephone": "02-26345500",
    "Position": {
      "Longitude": 121.6089476,
      "Latitude": 25.0758907
    }
  },
  {
    "Code": "0901190010",
    "ZhInfo": {
      "Region": "台北區",
      "County": "臺北市",
      "District": "萬華區",
      "Name": "西園醫療社團法人西園醫院",
      "Address": "臺北市萬華區西園路二段270號"
    },
    "EnInfo": {
      "Region": "Taipei Region",
      "County": "Taipei City",
      "District": "Wanhua District",
      "Name": "West Garden Hospital",
      "Address": "No. 270, Section 2, Xiyuan Road, Wanhua District, Taipei City, 108"
    },
    "Telephone": "02-23076968",
    "Position": {
      "Longitude": 121.494405,
      "Latitude": 25.027743
    }
  },
  {
    "Code": "1501010010",
    "ZhInfo": {
      "Region": "台北區",
      "County": "臺北市",
      "District": "松山區",
      "Name": "博仁綜合醫院",
      "Address": "臺北市松山區光復北路66號、68號地下一層、68號、68號2至7樓、68號2樓之1至7樓之1、68號2樓之2至7樓之2"
    },
    "EnInfo": {
      "Region": "Taipei Region",
      "County": "Taipei City",
      "District": "Songshan District",
      "Name": "Pojen General Hospital",
      "Address": "No. 66, Guangfu North Road, Songshan District, Taipei City, 105"
    },
    "Telephone": "02-25786677#2019、0978-199960",
    "Position": {
      "Longitude": 121.5576835,
      "Latitude": 25.0499097
    }
  },
  {
    "Code": "1231030015",
    "ZhInfo": {
      "Region": "台北區",
      "County": "新北市",
      "District": "永和區",
      "Name": "天主教耕莘醫療財團法人永和耕莘醫院",
      "Address": "新北市永和區中興街80號地下1樓至地上6樓及國光路123號地下3樓至地上11樓"
    },
    "EnInfo": {
      "Region": "Taipei Region",
      "County": "New Taipei City",
      "District": "Yonghe District",
      "Name": "Cardinal Tien Hospital An Kang Branch",
      "Address": "No. 80, Zhongxing Street, Yonghe District, New Taipei City, 234"
    },
    "Telephone": "02-29286060",
    "Position": {
      "Longitude": 121.51787,
      "Latitude": 25.011874
    }
  },
  {
    "Code": "1331160010",
    "ZhInfo": {
      "Region": "台北區",
      "County": "新北市",
      "District": "泰山區",
      "Name": "輔仁大學學校財團法人輔仁大學附設醫院",
      "Address": "新北市泰山區貴子路69號(地下4層、地上1至11層及13層、15層)"
    },
    "EnInfo": {
      "Region": "Taipei Region",
      "County": "New Taipei City",
      "District": "Taishan District",
      "Name": "Fu Jen Catholic University Hospital",
      "Address": "No. 69, Guizi Road, Taishan District, New Taipei City, 243"
    },
    "Telephone": "02-85128888",
    "Position": {
      "Longitude": 121.430799,
      "Latitude": 25.039676
    }
  },
  {
    "Code": "1131110516",
    "ZhInfo": {
      "Region": "台北區",
      "County": "新北市",
      "District": "汐止區",
      "Name": "國泰醫療財團法人汐止國泰綜合醫院",
      "Address": "新北市汐止區建成路59巷2號地下4樓至地上12樓"
    },
    "EnInfo": {
      "Region": "Taipei Region",
      "County": "New Taipei City",
      "District": "Xizhi District",
      "Name": "Cathay General Hospital Sijhih Branch",
      "Address": "No. 2, Lane 59, Jiancheng Road, Xizhi District, New Taipei City, 221"
    },
    "Telephone": "02-26482121#3910",
    "Position": {
      "Longitude": 121.661084,
      "Latitude": 25.072872
    }
  },
  {
    "Code": "0131060029",
    "ZhInfo": {
      "Region": "台北區",
      "County": "新北市",
      "District": "新莊區",
      "Name": "衛生福利部臺北醫院",
      "Address": "新北市新莊區思源路127號"
    },
    "EnInfo": {
      "Region": "Taipei Region",
      "County": "New Taipei City",
      "District": "Xinzhuang District",
      "Name": "Taipei Hospital, Ministry of Health and Welfare",
      "Address": "No. 127, Siyuan Rd, Xinzhuang District, New Taipei City, 242"
    },
    "Telephone": "02-22765566",
    "Position": {
      "Longitude": 121.459623,
      "Latitude": 25.043241
    }
  },
  {
    "Code": "1131090019",
    "ZhInfo": {
      "Region": "台北區",
      "County": "新北市",
      "District": "三峽區",
      "Name": "行天宮醫療志業醫療財團法人恩主公醫院",
      "Address": "新北市三峽區復興路399號"
    },
    "EnInfo": {
      "Region": "Taipei Region",
      "County": "New Taipei City",
      "District": "Sanxia District",
      "Name": "En Chu Kong Hospital",
      "Address": "No. 399, Fuxing Road, Sanxia District, New Taipei City, 237"
    },
    "Telephone": "02-26723456#6105",
    "Position": {
      "Longitude": 121.363008,
      "Latitude": 24.938385
    }
  },
  {
    "Code": "0131020016",
    "ZhInfo": {
      "Region": "台北區",
      "County": "新北市",
      "District": "三重區",
      "Name": "新北市立聯合醫院",
      "Address": "新北市三重區新北大道1段3號、3之1號"
    },
    "EnInfo": {
      "Region": "Taipei Region",
      "County": "New Taipei City",
      "District": "Sanchong District",
      "Name": "New Taipei City Hospital, New Taipei City Government (Sanchong Branch)",
      "Address": "No. 3, Section 1, New Taipei Blvd, Sanchong District, New Taipei City, 241"
    },
    "Telephone": "02-29829111",
    "Position": {
      "Longitude": 121.490998,
      "Latitude": 25.060821
    }
  },
  {
    "Code": "0131020016",
    "ZhInfo": {
      "Region": "台北區",
      "County": "新北市",
      "District": "板橋區",
      "Name": "新北市立聯合醫院-板橋院區",
      "Address": "新北市板橋區英士路198號"
    },
    "EnInfo": {
      "Region": "Taipei Region",
      "County": "New Taipei City",
      "District": "Sanchong District",
      "Name": "New Taipei City Hospital, New Taipei City Government (Sanchong Branch)",
      "Address": "No. 3, Section 1, New Taipei Blvd, Sanchong District, New Taipei City, 241"
    },
    "Telephone": "02-22575151",
    "Position": {
      "Longitude": 121.457634,
      "Latitude": 25.023779
    }
  },
  {
    "Code": "0431270012",
    "ZhInfo": {
      "Region": "台北區",
      "County": "新北市",
      "District": "金山區",
      "Name": "國立臺灣大學醫學院附設醫院金山分院",
      "Address": "新北市金山區五湖里玉爐路7號"
    },
    "EnInfo": {
      "Region": "Taipei Region",
      "County": "New Taipei City",
      "District": "Jinshan District",
      "Name": "National Taiwan University Hospital Jinshan Branch",
      "Address": "No. 7, Yulu Road, Jinshan District, New Taipei City, 208"
    },
    "Telephone": "02-24989898",
    "Position": {
      "Longitude": 121.628395,
      "Latitude": 25.219556
    }
  },
  {
    "Code": "1531060180",
    "ZhInfo": {
      "Region": "台北區",
      "County": "新北市",
      "District": "新莊區",
      "Name": "新泰綜合醫院",
      "Address": "新北市新莊區新樹路176號"
    },
    "EnInfo": {
      "Region": "Taipei Region",
      "County": "New Taipei City",
      "District": "Xinzhuang District",
      "Name": "Hsin-Tai General Hospital",
      "Address": "No. 176, Xinshu Road, Xinzhuang District, New Taipei City, 242"
    },
    "Telephone": "02-29962121",
    "Position": {
      "Longitude": 121.434351,
      "Latitude": 25.021432
    }
  },
  {
    "Code": "1531071030",
    "ZhInfo": {
      "Region": "台北區",
      "County": "新北市",
      "District": "樹林區",
      "Name": "仁愛醫院",
      "Address": "新北市樹林區文化街9號(地下1、2樓及地上1樓至8樓)"
    },
    "EnInfo": {
      "Region": "Taipei Region",
      "County": "New Taipei City",
      "District": "Shulin District",
      "Name": "Ren Ai Hospital",
      "Address": "No. 9, Wenhua Street, Shulin District, New Taipei City, 238"
    },
    "Telephone": "02-26834567",
    "Position": {
      "Longitude": 121.420039,
      "Latitude": 24.987188
    }
  },
  {
    "Code": "1531120038",
    "ZhInfo": {
      "Region": "台北區",
      "County": "新北市",
      "District": "瑞芳區",
      "Name": "瑞芳礦工醫院",
      "Address": "新北市瑞芳區一坑路71之2號"
    },
    "EnInfo": {
      "Region": "Taipei Region",
      "County": "New Taipei City",
      "District": "Ruifang District",
      "Name": "Rueifang Miner Hospital",
      "Address": "No. 71-2, Yikeng Road, Ruifang District, New Taipei City, 224"
    },
    "Telephone": "02-24974101",
    "Position": {
      "Longitude": 121.80217,
      "Latitude": 25.108602
    }
  },
  {
    "Code": "1231050017",
    "ZhInfo": {
      "Region": "台北區",
      "County": "新北市",
      "District": "新店區",
      "Name": "天主教耕莘醫療財團法人耕莘醫院安康院區",
      "Address": "新北市新店區車子路15號"
    },
    "EnInfo": {
      "Region": "Taipei Region",
      "County": "New Taipei City",
      "District": "Xindian Dist",
      "Name": "Cardinal Tien Hospital An Kang Branch",
      "Address": "No. 15, Chezi Rd., Xindian Dist., New Taipei City 231, Taiwan (R.O.C.)"
    },
    "Telephone": "02-22123066",
    "Position": {
      "Longitude": 121.5038556,
      "Latitude": 24.95367737
    }
  },
  {
    "Code": "1131130018",
    "ZhInfo": {
      "Region": "台北區",
      "County": "新北市",
      "District": "土城區",
      "Name": "新北市立土城醫院（委託長庚醫療財團法人興建經營）",
      "Address": "新北市土城區金城路2段6號"
    },
    "EnInfo": {
      "Region": "Taipei Region",
      "County": "New Taipei City",
      "District": "Tucheng Dist",
      "Name": "New Taipei City Tucheng Hospital ",
      "Address": "No. 6, Sec. 2, Jincheng Rd., Tucheng Dist., New Taipei City 236, Taiwan (R.O.C.)"
    },
    "Telephone": "02-22630588",
    "Position": {
      "Longitude": 121.448769781125,
      "Latitude": 24.9763228908933
    }
  },
  {
    "Code": "1134010022",
    "ZhInfo": {
      "Region": "台北區",
      "County": "宜蘭縣",
      "District": "宜蘭市",
      "Name": "宜蘭仁愛醫療財團法人宜蘭仁愛醫院",
      "Address": "宜蘭縣宜蘭市中山路二段260號"
    },
    "EnInfo": {
      "Region": "Taipei Region",
      "County": "Yilan County",
      "District": "Yilan City",
      "Name": "Yilan Jen-Ai Hospital",
      "Address": "No. 260, Section 2, Zhongshan Road, Yilan City, Yilan County, 260"
    },
    "Telephone": "03-9321888",
    "Position": {
      "Longitude": 121.754451,
      "Latitude": 24.748723
    }
  },
  {
    "Code": "0434010518",
    "ZhInfo": {
      "Region": "台北區",
      "County": "宜蘭縣",
      "District": "宜蘭市",
      "Name": "國立陽明大學附設醫院",
      "Address": "宜蘭縣宜蘭市校舍路169號"
    },
    "EnInfo": {
      "Region": "Taipei Region",
      "County": "Yilan County",
      "District": "Yilan City",
      "Name": "National Yang-Ming University Hospital",
      "Address": "No. 169, Xiaoshe Road, Yilan City, Yilan County, 260"
    },
    "Telephone": "03-9325192",
    "Position": {
      "Longitude": 121.754029,
      "Latitude": 24.757853
    }
  },
  {
    "Code": "0634070018",
    "ZhInfo": {
      "Region": "台北區",
      "County": "宜蘭縣",
      "District": "員山鄉",
      "Name": "臺北榮民總醫院員山分院",
      "Address": "宜蘭縣員山鄉榮光路386號"
    },
    "EnInfo": {
      "Region": "Taipei Region",
      "County": "Yilan County",
      "District": "Yuanshan Township",
      "Name": "Taipei Veterans General Hospital Yuanshan Branch",
      "Address": "No. 386, Rongguang Road, Yuanshan Township, Yilan County 264"
    },
    "Telephone": "03-9222141",
    "Position": {
      "Longitude": 121.687824,
      "Latitude": 24.721919
    }
  },
  {
    "Code": "1134020028",
    "ZhInfo": {
      "Region": "台北區",
      "County": "宜蘭縣",
      "District": "羅東鎮",
      "Name": "天主教靈醫會醫療財團法人羅東聖母醫院",
      "Address": "宜蘭縣羅東鎮中正南路160號"
    },
    "EnInfo": {
      "Region": "Taipei Region",
      "County": "Yilan County",
      "District": "Luodong Township",
      "Name": "Saint Mary's Hospital Luodong",
      "Address": "No. 160, Zhongzheng South Road, Luodong Township, Yilan County, 265"
    },
    "Telephone": "03-9544106",
    "Position": {
      "Longitude": 121.77159,
      "Latitude": 24.67187
    }
  },
  {
    "Code": "0634030014",
    "ZhInfo": {
      "Region": "台北區",
      "County": "宜蘭縣",
      "District": "蘇澳鎮",
      "Name": "臺北榮民總醫院蘇澳分院",
      "Address": "宜蘭縣蘇澳鎮蘇濱路一段301號"
    },
    "EnInfo": {
      "Region": "Taipei Region",
      "County": "Yilan County",
      "District": "Suao Township",
      "Name": "Taipei Veterans General Hospital Su-Ao Branch",
      "Address": "No. 301, Section 1, Subin Road, Su'ao Township, Yilan County, 270"
    },
    "Telephone": "03-9905106",
    "Position": {
      "Longitude": 121.848611,
      "Latitude": 24.614096
    }
  },
  {
    "Code": "1134050026",
    "ZhInfo": {
      "Region": "台北區",
      "County": "宜蘭縣",
      "District": "礁溪鄉",
      "Name": "天主教靈醫會醫療財團法人礁溪杏和醫院",
      "Address": "宜蘭縣礁溪鄉礁溪路4段129號"
    },
    "EnInfo": {
      "Region": "Taipei Region",
      "County": "Yilan County",
      "District": "Jiaoxi Township",
      "Name": "Camillian Hsing-Ho Hospital Chiao Hsi",
      "Address": "No. 129, Section 4, Jiaoxi Road, Jiaoxi Township, Yilan County, 262"
    },
    "Telephone": "03-9886996",
    "Position": {
      "Longitude": 121.769144,
      "Latitude": 24.820582
    }
  },
  {
    "Code": "1134020019",
    "ZhInfo": {
      "Region": "台北區",
      "County": "宜蘭縣",
      "District": "羅東鎮",
      "Name": "醫療財團法人羅許基金會羅東博愛醫院",
      "Address": "宜蘭縣羅東鎮南昌街83號"
    },
    "EnInfo": {
      "Region": "Taipei Region",
      "County": "Yilan County",
      "District": "Luodong Township",
      "Name": "Lotung Pohai Hospital, Lo-Hsu Medical Foundation",
      "Address": "No. 83, Nanchang Street, Luodong Township, Yilan County, 265"
    },
    "Telephone": "03-9543131#1131",
    "Position": {
      "Longitude": 121.772942,
      "Latitude": 24.671778
    }
  },
  {
    "Code": "0190030516",
    "ZhInfo": {
      "Region": "台北區",
      "County": "金門縣",
      "District": "金湖鎮",
      "Name": "衛生福利部金門醫院",
      "Address": "金門縣金湖鎮復興路2號"
    },
    "EnInfo": {
      "Region": "Taipei Region",
      "County": "Kinmen County",
      "District": "Jinhu Township",
      "Name": "Kinmen Hospital, Ministry of Health and Welfare",
      "Address": "No. 2, Fuxing Road, Jinhu Township, Kinmen County 891"
    },
    "Telephone": "082-332546#11801",
    "Position": {
      "Longitude": 118.4160218,
      "Latitude": 24.4431883
    }
  },
  {
    "Code": "0131060010",
    "ZhInfo": {
      "Region": "台北區",
      "County": "新北市",
      "District": "新莊區",
      "Name": "衛生福利部樂生療養院",
      "Address": "桃園縣龜山鄉萬壽路1段50巷2號及新北市新莊區中正路794號"
    },
    "EnInfo": {
      "Region": "Taipei Region",
      "County": "New Taipei City",
      "District": "Xinzhuang District",
      "Name": "Lo-Sheng Sanatorium and Hospital, Ministry of Health and Welfare",
      "Address": "No. 2, Lane 50, Section 1, Wanshou Road, Guishan District, Taoyuan City, 333 and No. 794, Zhongzheng Road, Xinzhuang District, New Taipei City, 242"
    },
    "Telephone": "02-82006600",
    "Position": {
      "Longitude": 121.407968,
      "Latitude": 25.020372
    }
  },
  {
    "Code": "0132110519",
    "ZhInfo": {
      "Region": "北區",
      "County": "桃園市",
      "District": "新屋區",
      "Name": "衛生福利部桃園醫院新屋分院",
      "Address": "桃園市新屋區新屋村14鄰新福二路六號"
    },
    "EnInfo": {
      "Region": "Northern Region",
      "County": "Taoyuan City",
      "District": "Xinwu District",
      "Name": "Xinwu Branch, Taoyuan Hospital, Ministry of Health and Welfare",
      "Address": "No. 6, Xinfu 2nd Road, Xinwu District, Taoyuan City, 327"
    },
    "Telephone": "03-4971989",
    "Position": {
      "Longitude": 121.107189,
      "Latitude": 24.969856
    }
  },
  {
    "Code": "0532090029",
    "ZhInfo": {
      "Region": "北區",
      "County": "桃園市",
      "District": "龍潭區",
      "Name": "國軍桃園總醫院附設民眾診療服務處",
      "Address": "桃園市龍潭區中興路168號"
    },
    "EnInfo": {
      "Region": "Northern Region",
      "County": "Taoyuan City",
      "District": "Longtan District",
      "Name": "Taoyuan Armed Forces General Hospital",
      "Address": "No. 168, Zhongxing Road, Longtan District, Taoyuan City, 325"
    },
    "Telephone": "03-4799595",
    "Position": {
      "Longitude": 121.234867,
      "Latitude": 24.877602
    }
  },
  {
    "Code": "0632010014",
    "ZhInfo": {
      "Region": "北區",
      "County": "桃園市",
      "District": "桃園區",
      "Name": "臺北榮民總醫院桃園分院",
      "Address": "桃園市桃園區成功路三段一○○號"
    },
    "EnInfo": {
      "Region": "Northern Region",
      "County": "Taoyuan City",
      "District": "Taoyuan District",
      "Name": "Taipei Veterans General Hospital, Taoyuan Branch",
      "Address": "No. 100, Section 3, Chenggong Road, Taoyuan District, Taoyuan City, 330"
    },
    "Telephone": "03-3384889",
    "Position": {
      "Longitude": 121.325155,
      "Latitude": 25.00402
    }
  },
  {
    "Code": "1532011154",
    "ZhInfo": {
      "Region": "北區",
      "County": "桃園市",
      "District": "桃園區",
      "Name": "敏盛綜合醫院",
      "Address": "桃園市桃園區經國路168號"
    },
    "EnInfo": {
      "Region": "Northern Region",
      "County": "Taoyuan City",
      "District": "Taoyuan District",
      "Name": "Min-Sheng General Hospital",
      "Address": "No. 168, Jingguo Road, Taoyuan District, Taoyuan City, 330"
    },
    "Telephone": "03-3179599",
    "Position": {
      "Longitude": 121.306314,
      "Latitude": 25.016234
    }
  },
  {
    "Code": "1132010024",
    "ZhInfo": {
      "Region": "北區",
      "County": "桃園市",
      "District": "桃園區",
      "Name": "沙爾德聖保祿修女會醫療財團法人聖保祿醫院",
      "Address": "桃園市桃園區建新街123號"
    },
    "EnInfo": {
      "Region": "Northern Region",
      "County": "Taoyuan City",
      "District": "Taoyuan District",
      "Name": "Saint Paul's Hospital",
      "Address": "No. 123, Jianxin Street, Taoyuan District, Taoyuan City, 330"
    },
    "Telephone": "03-3613141",
    "Position": {
      "Longitude": 121.312242,
      "Latitude": 24.982288
    }
  },
  {
    "Code": "1532040066",
    "ZhInfo": {
      "Region": "北區",
      "County": "桃園市",
      "District": "楊梅區",
      "Name": "怡仁綜合醫院",
      "Address": "桃園市楊梅區楊新北路三二一巷三０號"
    },
    "EnInfo": {
      "Region": "Northern Region",
      "County": "Taoyuan City",
      "District": "Yangmei District",
      "Name": "Yee Zen General Hospita",
      "Address": "No. 30, Lane 321, Yangxin North Road, Yangmei District, Taoyuan City, 326"
    },
    "Telephone": "03-4855566",
    "Position": {
      "Longitude": 121.155427,
      "Latitude": 24.916951
    }
  },
  {
    "Code": "1532040039",
    "ZhInfo": {
      "Region": "北區",
      "County": "桃園市",
      "District": "楊梅區",
      "Name": "天成醫院",
      "Address": "桃園市楊梅區中山北路一段三五六號"
    },
    "EnInfo": {
      "Region": "Northern Region",
      "County": "Taoyuan City",
      "District": "Yangmei District",
      "Name": "Ten Chen General Hospital",
      "Address": "No. 356, Section 1, Zhongshan North Road, Yangmei District, Taoyuan City, 326"
    },
    "Telephone": "03-4782350",
    "Position": {
      "Longitude": 121.1571669,
      "Latitude": 24.962516
    }
  },
  {
    "Code": "1532100049",
    "ZhInfo": {
      "Region": "北區",
      "County": "桃園市",
      "District": "平鎮區",
      "Name": "聯新國際醫院",
      "Address": "桃園市平鎮區廣泰路七七號、桃園市平鎮區延平路二段430巷115號"
    },
    "EnInfo": {
      "Region": "Northern Region",
      "County": "Taoyuan City",
      "District": "Pingzhen District",
      "Name": "Landseed International Hospital",
      "Address": "No. 77, Guangtai Road, Pingzhen District, Taoyuan City, 324?\uEEC6o. 115, Lane 430, Section 2, Yanping Road, Pingzhen District Taoyuan City, 324"
    },
    "Telephone": "03-4941234",
    "Position": {
      "Longitude": 121.20496,
      "Latitude": 24.94612
    }
  },
  {
    "Code": "0932020025",
    "ZhInfo": {
      "Region": "北區",
      "County": "桃園市",
      "District": "中壢區",
      "Name": "天成醫療社團法人天晟醫院",
      "Address": "桃園市中壢區延平路155號"
    },
    "EnInfo": {
      "Region": "Northern Region",
      "County": "Taoyuan City",
      "District": "Zhongli District",
      "Name": "Ten-Chen General Hospital",
      "Address": "No. 155, Yanping Road, Zhongli District, Taoyuan City, 320"
    },
    "Telephone": "03-4629292",
    "Position": {
      "Longitude": 121.229327,
      "Latitude": 24.962795
    }
  },
  {
    "Code": "0512040014",
    "ZhInfo": {
      "Region": "北區",
      "County": "新竹市",
      "District": "北區",
      "Name": "國軍新竹總醫院附設民眾診療服務處",
      "Address": "新竹市北區武陵路3號"
    },
    "EnInfo": {
      "Region": "Northern Region",
      "County": "Hsinchu City",
      "District": "North District",
      "Name": "Hsin Chu Armed Force Hospital",
      "Address": "No. 3, Wuling Road, North District, Hsinchu City, 300"
    },
    "Telephone": "03-5348181#325117",
    "Position": {
      "Longitude": 120.961966,
      "Latitude": 24.816144
    }
  },
  {
    "Code": "1112010528",
    "ZhInfo": {
      "Region": "北區",
      "County": "新竹市",
      "District": "東區",
      "Name": "國泰醫療財團法人新竹國泰綜合醫院",
      "Address": "新竹市東區福德里中華路二段六七八號及六七八號之一"
    },
    "EnInfo": {
      "Region": "Northern Region",
      "County": "Hsinchu City",
      "District": "East District",
      "Name": "Hsinchu Cathay General Hospital",
      "Address": "No. 678, Section 2, Zhonghua Rd, East District, Hsinchu City, 300"
    },
    "Telephone": "03-5278999#7999",
    "Position": {
      "Longitude": 120.965227,
      "Latitude": 24.798257
    }
  },
  {
    "Code": "1512011185",
    "ZhInfo": {
      "Region": "北區",
      "County": "新竹市",
      "District": "東區",
      "Name": "南門綜合醫院",
      "Address": "新竹市東區成功里林森路20號"
    },
    "EnInfo": {
      "Region": "Northern Region",
      "County": "Hsinchu City",
      "District": "East District",
      "Name": "Nan Men General Hospital",
      "Address": "No. 20, Linsen Road, East District, Hsinchu City, 300"
    },
    "Telephone": "03-5261122#150",
    "Position": {
      "Longitude": 120.969682,
      "Latitude": 24.80222
    }
  },
  {
    "Code": "0433030016",
    "ZhInfo": {
      "Region": "北區",
      "County": "新竹縣",
      "District": "竹東鎮",
      "Name": "國立臺灣大學醫學院附設醫院新竹臺大分院生醫醫院竹東院區",
      "Address": "新竹縣竹東鎮至善路52號"
    },
    "EnInfo": {
      "Region": "Northern Region",
      "County": "Hsinchu County",
      "District": "Zhudong Township",
      "Name": "National Taiwan University Hospital Hsinchu Biomedical Park Hosputal Zhudong Branch",
      "Address": "No. 52, Zhishan Road, Zhudong Township, Hsinchu County, 310"
    },
    "Telephone": "03-5943248#1190",
    "Position": {
      "Longitude": 121.09328,
      "Latitude": 24.719099
    }
  },
  {
    "Code": "0633030010",
    "ZhInfo": {
      "Region": "北區",
      "County": "新竹縣",
      "District": "竹東鎮",
      "Name": "臺北榮民總醫院新竹分院",
      "Address": "新竹縣竹東鎮中豐路一段81號"
    },
    "EnInfo": {
      "Region": "Northern Region",
      "County": "Hsinchu County",
      "District": "Zhudong Township",
      "Name": "Taipei Veterans General Hospital Hsinchu Branch",
      "Address": "No. 81, Section 1, Jhongfong Rd, Zhudong Township, Hsinchu County, 310"
    },
    "Telephone": "03-5962134",
    "Position": {
      "Longitude": 121.100178,
      "Latitude": 24.722617
    }
  },
  {
    "Code": "1333050017",
    "ZhInfo": {
      "Region": "北區",
      "County": "新竹縣",
      "District": "竹北市",
      "Name": "中國醫藥大學新竹附設醫院",
      "Address": "新竹縣竹北市興隆路一段199號"
    },
    "EnInfo": {
      "Region": "Northern Region",
      "County": "Hsinchu County",
      "District": "Zhubei City",
      "Name": "China Medical University Hsinchu Hospital",
      "Address": "No. 199, Section 1, Xinglong Road, Zhubei City, Hsinchu County, 302"
    },
    "Telephone": "03-5580558",
    "Position": {
      "Longitude": 121.001989,
      "Latitude": 24.824037
    }
  },
  {
    "Code": "0433050018",
    "ZhInfo": {
      "Region": "北區",
      "County": "新竹縣",
      "District": "竹北市",
      "Name": "國立臺灣大學醫學院附設醫院新竹臺大分院生醫醫院竹北院區",
      "Address": "新竹縣竹北市生醫路一段2號302"
    },
    "EnInfo": {
      "Region": "Northern Region",
      "County": "Hsinchu County",
      "District": "Zhubei City",
      "Name": "National Taiwan University Hospital Hsinchu Biomedical Park Hosputal Zhubei Branch",
      "Address": "No. 2, Sec. 1, Shengyi Rd., Zhubei City, Hsinchu County 302"
    },
    "Telephone": "03-6677600#532324",
    "Position": {
      "Longitude": 121.043718,
      "Latitude": 24.80607
    }
  },
  {
    "Code": "1133060019",
    "ZhInfo": {
      "Region": "北區",
      "County": "新竹縣",
      "District": "湖口鄉",
      "Name": "天主教仁慈醫療財團法人仁慈醫院",
      "Address": "新竹縣湖口鄉忠孝路２９號"
    },
    "EnInfo": {
      "Region": "Northern Region",
      "County": "Hsinchu County",
      "District": "Hukou Township",
      "Name": "Catholic Mercy Hospital, Catholic Mercy Medical Foundation",
      "Address": "No. 29, Zhongxiao Road, Hukou Township, Hsinchu County, 303"
    },
    "Telephone": "03-5993500#2190",
    "Position": {
      "Longitude": 121.045474,
      "Latitude": 24.900496
    }
  },
  {
    "Code": "1533051063",
    "ZhInfo": {
      "Region": "北區",
      "County": "新竹縣",
      "District": "竹北市",
      "Name": "大安醫院",
      "Address": "新竹縣竹北市博愛街318巷6號"
    },
    "EnInfo": {
      "Region": "Northern Region",
      "County": "Hsinchu County",
      "District": "Zhubei City",
      "Name": "Da An Hospital",
      "Address": "No. 6, Ln. 318, Bo'ai St., Zhubei City, Hsinchu County 302, Taiwan (R.O.C.)"
    },
    "Telephone": "03-5557188",
    "Position": {
      "Longitude": 121.0081583,
      "Latitude": 24.83498111
    }
  },
  {
    "Code": "0135010016",
    "ZhInfo": {
      "Region": "北區",
      "County": "苗栗縣",
      "District": "苗栗市",
      "Name": "衛生福利部苗栗醫院",
      "Address": "苗栗縣苗栗市為公路747號"
    },
    "EnInfo": {
      "Region": "Northern Region",
      "County": "Miaoli County",
      "District": "Miaoli City",
      "Name": "Miaoli General Hospital, Ministry of Health and Welfare",
      "Address": "No. 747, Weigong Road, Miaoli City, Miaoli County, 36054"
    },
    "Telephone": "037-261920",
    "Position": {
      "Longitude": 120.840405,
      "Latitude": 24.575655
    }
  },
  {
    "Code": "1135050020",
    "ZhInfo": {
      "Region": "北區",
      "County": "苗栗縣",
      "District": "頭份市",
      "Name": "為恭醫療財團法人為恭紀念醫院",
      "Address": "苗栗縣頭份市信義路128號"
    },
    "EnInfo": {
      "Region": "Northern Region",
      "County": "Miaoli County",
      "District": "Toufen City",
      "Name": "Wei Gong Memorial Hospital",
      "Address": "No. 128, Xinyi Road, Toufen City, Miaoli County, 351"
    },
    "Telephone": "037-676811",
    "Position": {
      "Longitude": 120.907345,
      "Latitude": 24.687096
    }
  },
  {
    "Code": "0935020027",
    "ZhInfo": {
      "Region": "北區",
      "County": "苗栗縣",
      "District": "苑裡鎮",
      "Name": "李綜合醫療社團法人苑裡李綜合醫院",
      "Address": "苗栗縣苑裡鎮和平路168號"
    },
    "EnInfo": {
      "Region": "Northern Region",
      "County": "Miaoli County",
      "District": "Yuanli Township",
      "Name": "Lee General Hospital",
      "Address": "No. 168, Heping Road, Yuanli Township, Miaoli County, 358"
    },
    "Telephone": "037-862387",
    "Position": {
      "Longitude": 120.65272,
      "Latitude": 24.44182
    }
  },
  {
    "Code": "1535081078",
    "ZhInfo": {
      "Region": "北區",
      "County": "苗栗縣",
      "District": "大湖鄉",
      "Name": "大順醫院",
      "Address": "苗栗縣大湖鄉中正路四十八之五號"
    },
    "EnInfo": {
      "Region": "Northern Region",
      "County": "Miaoli County",
      "District": "Dahu Township",
      "Name": "Da Shuen Hospital",
      "Address": "No. 48-5, Zhongzheng Road, Dahu Township, Miaoli County, 364"
    },
    "Telephone": "037-997666",
    "Position": {
      "Longitude": 120.867619,
      "Latitude": 24.422435
    }
  },
  {
    "Code": "1535051178",
    "ZhInfo": {
      "Region": "北區",
      "County": "苗栗縣",
      "District": "頭份市",
      "Name": "重光醫院",
      "Address": "苗栗縣頭份市中華路1037號"
    },
    "EnInfo": {
      "Region": "Northern Region",
      "County": "Miaoli County",
      "District": "Toufen City",
      "Name": "Chong Guang Hospital",
      "Address": "No. 1037, Zhonghua Rd., Toufen City, Miaoli County 351, Taiwan (R.O.C.)"
    },
    "Telephone": "03-7682666",
    "Position": {
      "Longitude": 120.9086611,
      "Latitude": 24.6866964
    }
  },
  {
    "Code": "1535010024",
    "ZhInfo": {
      "Region": "北區",
      "County": "苗栗縣",
      "District": "苗栗市",
      "Name": "協和醫院",
      "Address": "苗栗縣苗栗市中正路1367號"
    },
    "EnInfo": {
      "Region": "Northern Region",
      "County": "Miaoli County",
      "District": "Miaoli City",
      "Name": "Sheiho Hosipital",
      "Address": "No. 1367, Zhongzheng Rd., Miaoli City, Miaoli County 360, Taiwan (R.O.C.)"
    },
    "Telephone": "03-7352631",
    "Position": {
      "Longitude": 120.8176672,
      "Latitude": 24.54129848
    }
  },
  {
    "Code": "1535031041",
    "ZhInfo": {
      "Region": "北區",
      "County": "苗栗縣",
      "District": "通霄鎮",
      "Name": "通霄光田醫院",
      "Address": "苗栗縣通霄鎮中山路88號"
    },
    "EnInfo": {
      "Region": "Northern Region",
      "County": "Miaoli County",
      "District": "Tongxiao Township",
      "Name": "Tong Siao Kuang Tien Hospital",
      "Address": "No. 88, Zhongshan Rd., Tongxi Vil., Tongxiao Township, Miaoli County 357, Taiwan (R.O.C.)"
    },
    "Telephone": "037-759999",
    "Position": {
      "Longitude": 120.6803423,
      "Latitude": 24.48958265
    }
  },
  {
    "Code": "0935010012",
    "ZhInfo": {
      "Region": "北區",
      "County": "苗栗縣",
      "District": "苗栗市",
      "Name": "梓榮醫療社團法人弘大醫院",
      "Address": "苗栗縣苗栗市新東街125號"
    },
    "EnInfo": {
      "Region": "Northern Region",
      "County": "Miaoli County",
      "District": "Miaoli City",
      "Name": "Hope Doctors Hospital",
      "Address": "No. 125, Xindong St., Miaoli City, Miaoli County 360, Taiwan (R.O.C.)"
    },
    "Telephone": "037-320508",
    "Position": {
      "Longitude": 120.8215602,
      "Latitude": 24.5517864
    }
  },
  {
    "Code": "0936030018",
    "ZhInfo": {
      "Region": "中區",
      "County": "臺中市",
      "District": "大甲區",
      "Name": "李綜合醫療社團法人大甲李綜合醫院",
      "Address": "臺中市大甲區八德街2號"
    },
    "EnInfo": {
      "Region": "Central Region",
      "County": "Taichung City",
      "District": "Dajia District",
      "Name": "Daja Lee General Hospital",
      "Address": "No. 2, Bade Street, Dajia District, Taichung City, 437"
    },
    "Telephone": "04-26862288",
    "Position": {
      "Longitude": 120.618073,
      "Latitude": 24.350784
    }
  },
  {
    "Code": "1136200015",
    "ZhInfo": {
      "Region": "中區",
      "County": "臺中市",
      "District": "大里區",
      "Name": "仁愛醫療財團法人大里仁愛醫院",
      "Address": "臺中市大里區東榮路４８３號"
    },
    "EnInfo": {
      "Region": "Central Region",
      "County": "Taichung City",
      "District": "Dali District",
      "Name": "Jen-ai Hospital Dali Branch",
      "Address": "No. 483, Dongrong Road, Dali District, Taichung City, 412"
    },
    "Telephone": "04-24819900#11564",
    "Position": {
      "Longitude": 120.680434,
      "Latitude": 24.109261
    }
  },
  {
    "Code": "1517011112",
    "ZhInfo": {
      "Region": "中區",
      "County": "臺中市",
      "District": "中區",
      "Name": "澄清綜合醫院",
      "Address": "臺中市中區平等街139號"
    },
    "EnInfo": {
      "Region": "Central Region",
      "County": "Taichung City",
      "District": "Central District",
      "Name": "Cheng Ching General Hospital",
      "Address": "No. 139, Pingdeng Street, Central District, Taichung City, 400"
    },
    "Telephone": "04-24632000",
    "Position": {
      "Longitude": 120.68161,
      "Latitude": 24.142603
    }
  },
  {
    "Code": "0536190011",
    "ZhInfo": {
      "Region": "中區",
      "County": "臺中市",
      "District": "太平區",
      "Name": "國軍臺中總醫院附設民眾診療服務處",
      "Address": "臺中市太平區中山路二段３４８號"
    },
    "EnInfo": {
      "Region": "Central Region",
      "County": "Taichung City",
      "District": "Taiping District",
      "Name": "Taichung Armed Forces General Hospital",
      "Address": "No. 348, Section 2, Zhongshan Road, Taiping District, Taichung City, 411"
    },
    "Telephone": "04-23934191#525434",
    "Position": {
      "Longitude": 120.730557,
      "Latitude": 24.150646
    }
  },
  {
    "Code": "0117030010",
    "ZhInfo": {
      "Region": "中區",
      "County": "臺中市",
      "District": "西區",
      "Name": "衛生福利部臺中醫院",
      "Address": "臺中市西區廣民里三民路1段199號"
    },
    "EnInfo": {
      "Region": "Central Region",
      "County": "Taichung City",
      "District": "West District",
      "Name": "Taichung Hospital,Ministry of Health and Welfare",
      "Address": "No. 199, Section 1, Sanmin Road, West District, Taichung City, 403"
    },
    "Telephone": "04-22294411",
    "Position": {
      "Longitude": 120.6762712,
      "Latitude": 24.1406262
    }
  },
  {
    "Code": "0917070029",
    "ZhInfo": {
      "Region": "中區",
      "County": "臺中市",
      "District": "南屯區",
      "Name": "林新醫療社團法人林新醫院",
      "Address": "臺中市南屯區惠中路3段36號"
    },
    "EnInfo": {
      "Region": "Central Region",
      "County": "Taichung City",
      "District": "Nantun District",
      "Name": "Lin Shin Hospital",
      "Address": "No. 36, Section 3, Huizhong Road, Nantun District, Taichung City, 408"
    },
    "Telephone": "04-22586688",
    "Position": {
      "Longitude": 120.6403479,
      "Latitude": 24.1490126
    }
  },
  {
    "Code": "0903150014",
    "ZhInfo": {
      "Region": "中區",
      "County": "臺中市",
      "District": "烏日區",
      "Name": "林新醫療社團法人烏日林新醫院",
      "Address": "臺中市烏日區榮和路168號"
    },
    "EnInfo": {
      "Region": "Central Region",
      "County": "Taichung City",
      "District": "Wuri District",
      "Name": "Wuri Lin Shin Hospital",
      "Address": "No. 168, Ronghe Road, Wuri District, Taichung City, 414"
    },
    "Telephone": "04-23388766",
    "Position": {
      "Longitude": 120.598173,
      "Latitude": 24.109851
    }
  },
  {
    "Code": "1136090519",
    "ZhInfo": {
      "Region": "中區",
      "County": "臺中市",
      "District": "潭子區",
      "Name": "佛教慈濟醫療財團法人臺中慈濟醫院",
      "Address": "臺中市潭子區豐興路一段88號"
    },
    "EnInfo": {
      "Region": "Central Region",
      "County": "Taichung City",
      "District": "Tanzi District",
      "Name": "Taichung Tzu Chi Hosptial",
      "Address": "No. 88, Section 1, Fengxing Road, Tanzi District, Taichung City, 427"
    },
    "Telephone": "04-36060666 ",
    "Position": {
      "Longitude": 120.721608,
      "Latitude": 24.195792
    }
  },
  {
    "Code": "0136010010",
    "ZhInfo": {
      "Region": "中區",
      "County": "臺中市",
      "District": "豐原區",
      "Name": "衛生福利部豐原醫院",
      "Address": "臺中市豐原區安康路１００號"
    },
    "EnInfo": {
      "Region": "Central Region",
      "County": "Taichung City",
      "District": "Fengyuan District",
      "Name": "Feng-Yuan Hospital, Ministry Of Health And Welfare",
      "Address": "No. 100, Ankang Road, Fengyuan District, Taichung City, 420"
    },
    "Telephone": "04-25271180",
    "Position": {
      "Longitude": 120.725292,
      "Latitude": 24.242707
    }
  },
  {
    "Code": "1303180011",
    "ZhInfo": {
      "Region": "中區",
      "County": "臺中市",
      "District": "霧峰區",
      "Name": "亞洲大學附屬醫院",
      "Address": "臺中市霧峰區福新路222號"
    },
    "EnInfo": {
      "Region": "Central Region",
      "County": "Taichung City",
      "District": "Wufeng District",
      "Name": "Asia University Hospital",
      "Address": "No. 222, Fuxin Road, Wufeng District, Taichung City, 413"
    },
    "Telephone": "04-37061668",
    "Position": {
      "Longitude": 120.686043,
      "Latitude": 24.053652
    }
  },
  {
    "Code": "0517050010",
    "ZhInfo": {
      "Region": "中區",
      "County": "臺中市",
      "District": "北區",
      "Name": "國軍臺中總醫院附設民眾診療服務處中清分院",
      "Address": "臺中市北區忠明路500號"
    },
    "EnInfo": {
      "Region": "Central Region",
      "County": "Taichung City",
      "District": "North District",
      "Name": "Taichung Armed Forces General Hospital Zhongqing Branch",
      "Address": "No. 500, Zhongming Road, North District, Taichung City, 404"
    },
    "Telephone": "04-36020126",
    "Position": {
      "Longitude": 120.672018,
      "Latitude": 24.162466
    }
  },
  {
    "Code": "1536100081",
    "ZhInfo": {
      "Region": "中區",
      "County": "臺中市",
      "District": "大雅區 ",
      "Name": "清泉醫院",
      "Address": "臺中市大雅區三和里雅潭路四段80號 "
    },
    "EnInfo": {
      "Region": "Central Region",
      "County": "Taichung City",
      "District": "Daya District",
      "Name": "Ching-chyuan Hospital",
      "Address": "No. 80, Sec. 4, Yatan Rd., Daya Dist., Taichung City 428, Taiwan (R.O.C.)"
    },
    "Telephone": "04-25605600 ",
    "Position": {
      "Longitude": 120.66637449212,
      "Latitude": 24.2170591790347
    }
  },
  {
    "Code": "1503190020",
    "ZhInfo": {
      "Region": "中區",
      "County": "臺中市",
      "District": "太平區",
      "Name": "長安醫院",
      "Address": "臺中市太平區永平路1段9號"
    },
    "EnInfo": {
      "Region": "Central Region",
      "County": "Taichung City",
      "District": "Taiping District",
      "Name": "Everan Hospital",
      "Address": "No. 9, Sec. 1, Yongping Rd., Taiping Dist., Taichung City 411, Taiwan (R.O.C.)"
    },
    "Telephone": "04-36113611",
    "Position": {
      "Longitude": 120.719689482769,
      "Latitude": 24.1311869653575
    }
  },
  {
    "Code": "0638020014",
    "ZhInfo": {
      "Region": "中區",
      "County": "南投縣",
      "District": "埔里鎮",
      "Name": "臺中榮民總醫院埔里分院",
      "Address": "南投縣埔里鎮蜈蚣里榮光路1號"
    },
    "EnInfo": {
      "Region": "Central Region",
      "County": "Nantou County",
      "District": "Puli Township",
      "Name": "Taichung Veterans General Hospital Puli Branch",
      "Address": "No. 1, Rongguang Road, Puli Township, Nantou County, 54552"
    },
    "Telephone": "0921-937367",
    "Position": {
      "Longitude": 120.995785,
      "Latitude": 23.975834
    }
  },
  {
    "Code": "0938030016",
    "ZhInfo": {
      "Region": "中區",
      "County": "南投縣",
      "District": "草屯鎮",
      "Name": "佑民醫療社團法人佑民醫院",
      "Address": "南投縣草屯鎮太平路一段200號"
    },
    "EnInfo": {
      "Region": "Central Region",
      "County": "Nantou County",
      "District": "Caotun Township",
      "Name": "Yumin Hospital",
      "Address": "No. 200, Section 1, Taiping Road, Caotun Township, Nantou County, 542"
    },
    "Telephone": "0979-933795",
    "Position": {
      "Longitude": 120.681661,
      "Latitude": 23.960591
    }
  },
  {
    "Code": "1138010019",
    "ZhInfo": {
      "Region": "中區",
      "County": "南投縣",
      "District": "南投市",
      "Name": "彰化基督教醫療財團法人南投基督教醫院",
      "Address": "南投縣南投市中興路870號"
    },
    "EnInfo": {
      "Region": "Central Region",
      "County": "Nantou County",
      "District": "Nantou City",
      "Name": "Nantou Christian Hospital",
      "Address": "No. 870, Zhongxing Road, Nantou City, Nantou County, 540"
    },
    "Telephone": "049-2225595#1195",
    "Position": {
      "Longitude": 120.683969,
      "Latitude": 23.898903
    }
  },
  {
    "Code": "1138020015",
    "ZhInfo": {
      "Region": "中區",
      "County": "南投縣",
      "District": "埔里鎮",
      "Name": "埔基醫療財團法人埔里基督教醫院",
      "Address": "南投縣埔里鎮鐵山路一號(急診)"
    },
    "EnInfo": {
      "Region": "Central Region",
      "County": "Nantou County",
      "District": "Puli Township",
      "Name": "Puli Christian Hospital",
      "Address": "No. 1, Tieshan Road, Puli Township, Nantou County, 545"
    },
    "Telephone": "049-2912151#1159",
    "Position": {
      "Longitude": 120.946524,
      "Latitude": 23.970449
    }
  },
  {
    "Code": "1538041101",
    "ZhInfo": {
      "Region": "中區",
      "County": "南投縣",
      "District": "竹山鎮",
      "Name": "竹山秀傳醫院",
      "Address": "南投縣竹山鎮集山路二段７５號"
    },
    "EnInfo": {
      "Region": "Central Region",
      "County": "Nantou County",
      "District": "Zhushan Township",
      "Name": "Chu Shang Show Chwan Hospital",
      "Address": "No. 75, Section 2, Jishan Road, Zhushan Township, Nantou County, 557"
    },
    "Telephone": "049-2624266#32153",
    "Position": {
      "Longitude": 120.713958,
      "Latitude": 23.800162
    }
  },
  {
    "Code": "1137080017",
    "ZhInfo": {
      "Region": "中區",
      "County": "彰化縣",
      "District": "二林鎮",
      "Name": "彰化基督教醫療財團法人二林基督教醫院",
      "Address": "彰化縣二林鎮南光里大成路一段558號、安和街40巷28號2樓"
    },
    "EnInfo": {
      "Region": "Central Region",
      "County": "Changhua County",
      "District": "Erlin Township",
      "Name": "Erlin Christian Hospital",
      "Address": "No. 558, Section 1, Dacheng Road, Erlin Township, Changhua County, 526"
    },
    "Telephone": "04-8960128",
    "Position": {
      "Longitude": 120.363344,
      "Latitude": 23.893608
    }
  },
  {
    "Code": "1137050019",
    "ZhInfo": {
      "Region": "中區",
      "County": "彰化縣",
      "District": "員林市",
      "Name": "彰化基督教醫療財團法人員林基督教醫院",
      "Address": "彰化縣員林市南平里莒光路456號"
    },
    "EnInfo": {
      "Region": "Central Region",
      "County": "Changhua County",
      "District": "Yuanlin City",
      "Name": "Yuanlin Christian Hospital",
      "Address": "No. 456, Juguang Road, Yuanlin City, Changhua County, 510"
    },
    "Telephone": "04-8381456",
    "Position": {
      "Longitude": 120.566953,
      "Latitude": 23.96275
    }
  },
  {
    "Code": "0137170515",
    "ZhInfo": {
      "Region": "中區",
      "County": "彰化縣",
      "District": "埔心鄉",
      "Name": "衛生福利部彰化醫院",
      "Address": "彰化縣埔心鄉中正路二段80號"
    },
    "EnInfo": {
      "Region": "Central Region",
      "County": "Changhua County",
      "District": "Puxin Township",
      "Name": "Changhua Hospital,Ministry of Health and Welfare",
      "Address": "No. 80, Section 2, Zhongzheng Road, Puxin Township, Changhua County, 513"
    },
    "Telephone": "04-8298686",
    "Position": {
      "Longitude": 120.527299,
      "Latitude": 23.950225
    }
  },
  {
    "Code": "1137020520",
    "ZhInfo": {
      "Region": "中區",
      "County": "彰化縣",
      "District": "鹿港鎮",
      "Name": "彰化基督教醫療財團法人鹿港基督教醫院",
      "Address": "彰化縣鹿港鎮中正路480號"
    },
    "EnInfo": {
      "Region": "Central Region",
      "County": "Changhua County",
      "District": "Lukang Township",
      "Name": "Lukang Christian Hopsital",
      "Address": "No. 480, Jhongjheng Rd, Lukang Township, Changhua County, 505"
    },
    "Telephone": "04-7779595",
    "Position": {
      "Longitude": 120.438211,
      "Latitude": 24.060379
    }
  },
  {
    "Code": "1537040066",
    "ZhInfo": {
      "Region": "中區",
      "County": "彰化縣",
      "District": "北斗鎮",
      "Name": "卓醫院",
      "Address": "彰化縣北斗鎮中山路一段３１１號"
    },
    "EnInfo": {
      "Region": "Central Region",
      "County": "Changhua County",
      "District": "Beidou Township",
      "Name": "Cho Hospital",
      "Address": "No. 311, Section 1, Zhongshan Road, Beidou Township, Changhua County, 521"
    },
    "Telephone": "04-8882517",
    "Position": {
      "Longitude": 120.51554,
      "Latitude": 23.872278
    }
  },
  {
    "Code": "0937030012",
    "ZhInfo": {
      "Region": "中區",
      "County": "彰化縣",
      "District": "和美鎮",
      "Name": "道周醫療社團法人道周醫院",
      "Address": "彰化縣和美鎮和光路180號、和善路118號"
    },
    "EnInfo": {
      "Region": "Central Region",
      "County": "Changhua County",
      "District": "Hemei Township",
      "Name": "Farlin Hospital",
      "Address": "No. 180, Heguang Road, Hemei Township, Changhua County, 508"
    },
    "Telephone": "04-7566995",
    "Position": {
      "Longitude": 120.491865,
      "Latitude": 24.110572
    }
  },
  {
    "Code": "1537051292",
    "ZhInfo": {
      "Region": "中區",
      "County": "彰化縣",
      "District": "員林市",
      "Name": "員生醫院",
      "Address": "彰化縣員林市莒光路359號"
    },
    "EnInfo": {
      "Region": "Central Region",
      "County": "Changhua County",
      "District": "Yuanlin City",
      "Name": "Yuan Sheng Hospital",
      "Address": "No. 359, Juguang Road, Yuanlin City, Changhua County, 510"
    },
    "Telephone": "04-8383995",
    "Position": {
      "Longitude": 120.566404,
      "Latitude": 23.95925
    }
  },
  {
    "Code": "0937050024",
    "ZhInfo": {
      "Region": "中區",
      "County": "彰化縣",
      "District": "員林市",
      "Name": "惠來醫療社團法人宏仁醫院",
      "Address": "彰化縣員林市惠來街89號"
    },
    "EnInfo": {
      "Region": "Central Region",
      "County": "Changhua County",
      "District": "Yuanlin City",
      "Name": "Huilai Medical Care System Hongren Hospital",
      "Address": "No. 89, Huilai St., Yuanlin City, Changhua County 510014, Taiwan (R.O.C.) "
    },
    "Telephone": "04-8375878",
    "Position": {
      "Longitude": 120.570296,
      "Latitude": 23.9551145
    }
  },
  {
    "Code": "1137010051",
    "ZhInfo": {
      "Region": "中區",
      "County": "彰化縣",
      "District": "彰化市",
      "Name": "彰化基督教醫療財團法人漢銘基督教醫院",
      "Address": "彰化縣彰化市中山路一段366號"
    },
    "EnInfo": {
      "Region": "Central Region",
      "County": "Changhua County",
      "District": "Changhua City",
      "Name": "Hanming Christian Hospital",
      "Address": "No. 366, Sec. 1, Zhongshan Rd., Changhua City, Changhua County 500, Taiwan (R.O.C.)"
    },
    "Telephone": "04-7113456",
    "Position": {
      "Longitude": 120.535688308017,
      "Latitude": 24.0612998606823
    }
  },
  {
    "Code": "0439010527",
    "ZhInfo": {
      "Region": "南區",
      "County": "雲林縣",
      "District": "斗六市",
      "Name": "國立成功大學醫學院附設醫院斗六分院",
      "Address": "雲林縣斗六市莊敬路345號"
    },
    "EnInfo": {
      "Region": "Southern Region",
      "County": "Yunlin County",
      "District": "Douliu City",
      "Name": "National Cheng Kung University Hospital Dou-Liou Branch",
      "Address": "No. 345, Zhuangjing Road, Douliu City, Yunlin County, 640"
    },
    "Telephone": "05-5332121",
    "Position": {
      "Longitude": 120.545879,
      "Latitude": 23.701971
    }
  },
  {
    "Code": "1339060017",
    "ZhInfo": {
      "Region": "南區",
      "County": "雲林縣",
      "District": "北港鎮",
      "Name": "中國醫藥大學北港附設醫院",
      "Address": "雲林縣北港鎮新德路１２３號"
    },
    "EnInfo": {
      "Region": "Southern Region",
      "County": "Yunlin County",
      "District": "Beigang Township",
      "Name": "China Medical University Beigang Hospital",
      "Address": "No. 123, Xinde Road, Beigang Township, Yunlin County, 651"
    },
    "Telephone": "05-7837901",
    "Position": {
      "Longitude": 120.307229,
      "Latitude": 23.590144
    }
  },
  {
    "Code": "1139040011",
    "ZhInfo": {
      "Region": "南區",
      "County": "雲林縣",
      "District": "西螺鎮",
      "Name": "彰化基督教醫療財團法人雲林基督教醫院",
      "Address": "雲林縣西螺鎮新豐里市場南路371、375號"
    },
    "EnInfo": {
      "Region": "Southern Region",
      "County": "Yunlin County",
      "District": "Xiluo Township",
      "Name": "Yunlin Christian Hospital",
      "Address": "No. 375, Shichang South Road, Xiluo Township, Yunlin County, 648"
    },
    "Telephone": "05-5871111",
    "Position": {
      "Longitude": 120.441373,
      "Latitude": 23.780705
    }
  },
  {
    "Code": "1139030015",
    "ZhInfo": {
      "Region": "南區",
      "County": "雲林縣",
      "District": "虎尾鎮",
      "Name": "天主教若瑟醫療財團法人若瑟醫院",
      "Address": "雲林縣虎尾鎮新生路74號(民權路2號)"
    },
    "EnInfo": {
      "Region": "Southern Region",
      "County": "Yunlin County",
      "District": "Huwei Township",
      "Name": "St. Joseph's Hospital",
      "Address": "No. 74, Xinsheng Road, Huwei Township, Yunlin County, 632"
    },
    "Telephone": "05-6337333",
    "Position": {
      "Longitude": 120.437343,
      "Latitude": 23.708016
    }
  },
  {
    "Code": "1139130010",
    "ZhInfo": {
      "Region": "南區",
      "County": "雲林縣",
      "District": "麥寮鄉",
      "Name": "長庚醫療財團法人雲林長庚紀念醫院",
      "Address": "雲林縣麥寮鄉中興村工業路1500號"
    },
    "EnInfo": {
      "Region": "Southern Region",
      "County": "Yunlin County",
      "District": "Mailiao Township",
      "Name": "Yunlin Chang Gung Memorial Hospital",
      "Address": "No. 1500, Gongye Road, Mailiao Township, Yunlin County, 638"
    },
    "Telephone": "05-6915151",
    "Position": {
      "Longitude": 120.218628,
      "Latitude": 23.795598
    }
  },
  {
    "Code": "0439010518",
    "ZhInfo": {
      "Region": "南區",
      "County": "雲林縣",
      "District": "虎尾鎮",
      "Name": "國立臺灣大學醫學院附設醫院雲林分院虎尾院區",
      "Address": "雲林縣虎尾鎮學府路95號"
    },
    "EnInfo": {
      "Region": "Southern Region",
      "County": "Yunlin County",
      "District": "Huwei Township",
      "Name": "National Taiwan University Hosipital Yunlin Branch. Hu-Wei Region",
      "Address": "No. 95, Xuefu Rd., Huwei Township, Yunlin County 632, Taiwan (R.O.C.)"
    },
    "Telephone": "05-6330002",
    "Position": {
      "Longitude": 120.4279313,
      "Latitude": 23.73522006
    }
  },
  {
    "Code": "0622020017",
    "ZhInfo": {
      "Region": "南區",
      "County": "嘉義市",
      "District": "西區",
      "Name": "臺中榮民總醫院嘉義分院(上午)",
      "Address": "嘉義市西區劉厝里世賢路二段６００號"
    },
    "EnInfo": {
      "Region": "Southern Region",
      "County": "Chiayi City",
      "District": "West District",
      "Name": "Taichung Veterans General Hospital Chiayi Branch",
      "Address": "No. 600, Section 2, Shixian Road, West District, Chiayi City, 600"
    },
    "Telephone": "05-2359630",
    "Position": {
      "Longitude": 120.42297,
      "Latitude": 23.46755
    }
  },
  {
    "Code": "1122010021",
    "ZhInfo": {
      "Region": "南區",
      "County": "嘉義市",
      "District": "東區",
      "Name": "天主教中華聖母修女會醫療財團法人天主教聖馬爾定醫院(下午)",
      "Address": "嘉義市東區短竹里大雅路二段565號"
    },
    "EnInfo": {
      "Region": "Southern Region",
      "County": "Chiayi City",
      "District": "East District",
      "Name": "St. Martin De Porres Hospital Da-Ya Branch",
      "Address": "No. 565, Section 2, Daya Road, East District, Chiayi City, 600"
    },
    "Telephone": "05-2756000",
    "Position": {
      "Longitude": 120.467671,
      "Latitude": 23.47635
    }
  },
  {
    "Code": "0122020517",
    "ZhInfo": {
      "Region": "南區",
      "County": "嘉義市",
      "District": "西區",
      "Name": "衛生福利部嘉義醫院(下午、晚上)",
      "Address": "嘉義市西區北港路312號"
    },
    "EnInfo": {
      "Region": "Southern Region",
      "County": "Chiayi City",
      "District": "West District",
      "Name": "Chia-Yi Hospital, Ministry of Health and Welfare",
      "Address": "No. 312, Beigang Road, West District, Chiayi City, 60096"
    },
    "Telephone": "05-2319090",
    "Position": {
      "Longitude": 120.42936,
      "Latitude": 23.481544
    }
  },
  {
    "Code": "0140010028",
    "ZhInfo": {
      "Region": "南區",
      "County": "嘉義縣",
      "District": "朴子市",
      "Name": "衛生福利部朴子醫院",
      "Address": "嘉義縣朴子市永和里5鄰應菜埔４２－５０號"
    },
    "EnInfo": {
      "Region": "Southern Region",
      "County": "Chiayi County",
      "District": "Puzi City",
      "Name": "Puzi Hospital, Ministry of Health and Welfare",
      "Address": "No. 42-50, Yingcaipu 5, Yonghe Village, Puzi City, Chiayi County"
    },
    "Telephone": "05-3790600",
    "Position": {
      "Longitude": 120.234632,
      "Latitude": 23.464349
    }
  },
  {
    "Code": "0640140012",
    "ZhInfo": {
      "Region": "南區",
      "County": "嘉義縣",
      "District": "竹崎鄉",
      "Name": "臺中榮民總醫院灣橋分院",
      "Address": "嘉義縣竹崎鄉灣橋村石麻園38號"
    },
    "EnInfo": {
      "Region": "Southern Region",
      "County": "Chiayi County",
      "District": "Zhuqi Township",
      "Name": "Taichung Veterans General Hospital Wanqiao Branch",
      "Address": "No. 38, Shimayuan, Wanqiao Village, Zhuqi Township, Chiayi County"
    },
    "Telephone": "05-2791072",
    "Position": {
      "Longitude": 120.506664,
      "Latitude": 23.487187
    }
  },
  {
    "Code": "0121050011",
    "ZhInfo": {
      "Region": "南區",
      "County": "臺南市",
      "District": "中西區",
      "Name": "衛生福利部臺南醫院",
      "Address": "臺南市中西區中山路125號"
    },
    "EnInfo": {
      "Region": "Southern Region",
      "County": "Tainan City",
      "District": "West Central District",
      "Name": "Tainan Hospital, Ministry of Health and Welfare",
      "Address": "No. 125, Zhongshan Rd, West Central District, Tainan City, 700"
    },
    "Telephone": "06-2200055",
    "Position": {
      "Longitude": 120.208805,
      "Latitude": 22.99638
    }
  },
  {
    "Code": "1141090512",
    "ZhInfo": {
      "Region": "南區",
      "County": "臺南市",
      "District": "柳營區",
      "Name": "奇美醫療財團法人柳營奇美醫院",
      "Address": "臺南市柳營區太康里201號"
    },
    "EnInfo": {
      "Region": "Southern Region",
      "County": "Tainan City",
      "District": "Liuying District",
      "Name": "Liuying Chi Mei Medical Center",
      "Address": "No. 201, Taikang Lane, Liuying District, Tainan City"
    },
    "Telephone": "06-6226999",
    "Position": {
      "Longitude": 120.324705,
      "Latitude": 23.289269
    }
  },
  {
    "Code": "1121010018",
    "ZhInfo": {
      "Region": "南區",
      "County": "臺南市",
      "District": "東區",
      "Name": "台灣基督長老教會新樓醫療財團法人台南新樓醫院",
      "Address": "臺南市東區東門路1段57號"
    },
    "EnInfo": {
      "Region": "Southern Region",
      "County": "Tainan City",
      "District": "East District",
      "Name": "Tainan Sin-Lau Hospital",
      "Address": "No. 57, Section 1, Dongmen Road, East District, Tainan City, 701"
    },
    "Telephone": "06-2748316",
    "Position": {
      "Longitude": 120.212807,
      "Latitude": 22.989158
    }
  },
  {
    "Code": "1105040016",
    "ZhInfo": {
      "Region": "南區",
      "County": "臺南市",
      "District": "麻豆區",
      "Name": "台灣基督長老教會新樓醫療財團法人麻豆新樓醫院",
      "Address": "臺南市麻豆區埤頭里苓子林20號"
    },
    "EnInfo": {
      "Region": "Southern Region",
      "County": "Tainan City",
      "District": "Madou District",
      "Name": "Madou Sin-Lau Hospital",
      "Address": "No. 20, Lingzilin, Madou District, Tainan City, 721"
    },
    "Telephone": "06-5702228",
    "Position": {
      "Longitude": 120.233033,
      "Latitude": 23.179874
    }
  },
  {
    "Code": "1105050012",
    "ZhInfo": {
      "Region": "南區",
      "County": "臺南市",
      "District": "佳里區",
      "Name": "奇美醫療財團法人佳里奇美醫院",
      "Address": "臺南市佳里區佳興里佳里興606號"
    },
    "EnInfo": {
      "Region": "Southern Region",
      "County": "Tainan City",
      "District": "Jiali District",
      "Name": "Jiali Chi Mei Medical Center",
      "Address": "No. 606, Jialixing,  Jiali District, Tainan City, 722"
    },
    "Telephone": "06-7263333",
    "Position": {
      "Longitude": 120.183662,
      "Latitude": 23.181699
    }
  },
  {
    "Code": "0141270019",
    "ZhInfo": {
      "Region": "南區",
      "County": "臺南市",
      "District": "仁德區",
      "Name": "衛生福利部胸腔病院",
      "Address": "臺南市仁德區中山路864號"
    },
    "EnInfo": {
      "Region": "Southern Region",
      "County": "Tainan City",
      "District": "Rende District",
      "Name": "Chest Hospital, Ministry of Health and Welfare",
      "Address": "No. 864, Zhongshan Road, Rende District, Tainan City, 717"
    },
    "Telephone": "06-2705911",
    "Position": {
      "Longitude": 120.241821,
      "Latitude": 22.975271
    }
  },
  {
    "Code": "1521031104",
    "ZhInfo": {
      "Region": "南區",
      "County": "臺南市",
      "District": "中西區",
      "Name": "郭綜合醫院",
      "Address": "臺南市中西區民生路2段6.8.10.12.14.18.20.22.23.24.25.27.44號及40、42號1、2樓"
    },
    "EnInfo": {
      "Region": "Southern Region",
      "County": "Tainan City",
      "District": "West Central District",
      "Name": "Kuo General Hospital",
      "Address": "No. 22, Section 2, Minsheng Road, West Central District, Tainan City, 700"
    },
    "Telephone": "06-2221111",
    "Position": {
      "Longitude": 120.198827,
      "Latitude": 22.994984
    }
  },
  {
    "Code": "1305370013",
    "ZhInfo": {
      "Region": "南區",
      "County": "臺南市",
      "District": "安南區",
      "Name": "臺南市立安南醫院委託中國醫藥大學興建經營",
      "Address": "臺南市安南區長和路二段66號"
    },
    "EnInfo": {
      "Region": "Southern Region",
      "County": "Tainan City",
      "District": "Annan District",
      "Name": "An Nan Hospital",
      "Address": "No. 66, Section 2, Zhanghe Road, Annan District, Tainan City, 709"
    },
    "Telephone": "06-3553111",
    "Position": {
      "Longitude": 120.223192,
      "Latitude": 23.064232
    }
  },
  {
    "Code": "0905320023",
    "ZhInfo": {
      "Region": "南區",
      "County": "臺南市",
      "District": "東區",
      "Name": "台南市立醫院（委託秀傳醫療社團法人經營)",
      "Address": "臺南市東區崇德路670號"
    },
    "EnInfo": {
      "Region": "Southern Region",
      "County": "Tainan City",
      "District": "East District",
      "Name": "Tainan Municipal Hospital",
      "Address": "No. 670, Chongde Road, East District, Tainan City, 701"
    },
    "Telephone": "06-2609926",
    "Position": {
      "Longitude": 120.226743,
      "Latitude": 22.968535
    }
  },
  {
    "Code": "0141010013",
    "ZhInfo": {
      "Region": "南區",
      "County": "臺南市",
      "District": "新營區",
      "Name": "衛生福利部新營醫院",
      "Address": "臺南市新營區信義街73號"
    },
    "EnInfo": {
      "Region": "Southern Region",
      "County": "Tainan City",
      "District": "Xinying District",
      "Name": "Sinying Hospital, Ministry of Health and Welfare",
      "Address": "No. 73, Xinyi Street, Xinying District, Tainan City, 730"
    },
    "Telephone": "06-6351131",
    "Position": {
      "Longitude": 120.313307,
      "Latitude": 23.308848
    }
  },
  {
    "Code": "0141060513",
    "ZhInfo": {
      "Region": "南區",
      "County": "臺南市",
      "District": "新化區",
      "Name": "衛生福利部臺南醫院新化分院",
      "Address": "臺南市新化區那拔里牧場72號"
    },
    "EnInfo": {
      "Region": "Southern Region",
      "County": "Tainan City",
      "District": "Xinhua District",
      "Name": "Tainan Hospital Xinhua Branch, Ministry of Health and Welfare",
      "Address": "No. 72, Nabari Ranch, Xinhua District, Tainan City, 712"
    },
    "Telephone": "06-5911929",
    "Position": {
      "Longitude": 120.336408,
      "Latitude": 23.062491
    }
  },
  {
    "Code": "0641310018",
    "ZhInfo": {
      "Region": "南區",
      "County": "臺南市",
      "District": "永康區",
      "Name": "高雄榮民總醫院臺南分院",
      "Address": "臺南市永康區復興路427號"
    },
    "EnInfo": {
      "Region": "Southern Region",
      "County": "Tainan City",
      "District": "Yongkang District",
      "Name": "Kaohsiung Veterans General Hospital Tainan Branch",
      "Address": "No. 427, Fuxing Road, Yongkang District, Tainan City, 710"
    },
    "Telephone": "06-3125101",
    "Position": {
      "Longitude": 120.240268,
      "Latitude": 22.997284
    }
  },
  {
    "Code": "1102110011",
    "ZhInfo": {
      "Region": "高屏區",
      "County": "高雄市",
      "District": "小港區",
      "Name": "高雄市立小港醫院",
      "Address": "高雄市小港區山明里山明路四八二號B1-10樓"
    },
    "EnInfo": {
      "Region": "Kaohsiung-Pingtung Region",
      "County": "Kaohsiung City",
      "District": "Xiaogang District",
      "Name": "Kaohsiung Municipal Siaogang Hospital",
      "Address": "No. 482, Shanming Road, Xiaogang District, Kaohsiung City, 812"
    },
    "Telephone": "07-8036783#3134",
    "Position": {
      "Longitude": 120.363101,
      "Latitude": 22.567359
    }
  },
  {
    "Code": "0502030015",
    "ZhInfo": {
      "Region": "高屏區",
      "County": "高雄市",
      "District": "左營區",
      "Name": "國軍高雄總醫院左營分院附設民眾診療服務處",
      "Address": "高雄市左營區軍校路５５３號"
    },
    "EnInfo": {
      "Region": "Kaohsiung-Pingtung Region",
      "County": "Kaohsiung City",
      "District": "Zuoying District",
      "Name": "Kaohsiung Armed Forces General Hospital Zuoying Branch",
      "Address": "No. 553, Junxiao Road, Zuoying District, Kaohsiung City, 813"
    },
    "Telephone": "07-5817121",
    "Position": {
      "Longitude": 120.290414,
      "Latitude": 22.701528
    }
  },
  {
    "Code": "0902080013",
    "ZhInfo": {
      "Region": "高屏區",
      "County": "高雄市",
      "District": "苓雅區",
      "Name": "阮綜合醫院",
      "Address": "高雄市苓雅區成功一路156號1-3樓及162號B1-10樓.四維四路136號B4-12樓.156號B2,1-4,9-13樓及166號B2-11樓.永昌街49號1-6樓"
    },
    "EnInfo": {
      "Region": "Kaohsiung-Pingtung Region",
      "County": "Kaohsiung City",
      "District": "Lingya District",
      "Name": "Yuan's General Hospita",
      "Address": "No. 162, Chenggong 1st Road, Lingya District, Kaohsiung City, 802"
    },
    "Telephone": "07-3351121",
    "Position": {
      "Longitude": 120.297979,
      "Latitude": 22.615753
    }
  },
  {
    "Code": "0102080017",
    "ZhInfo": {
      "Region": "高屏區",
      "County": "高雄市",
      "District": "苓雅區",
      "Name": "高雄市立民生醫院",
      "Address": "高雄市苓雅區凱旋二路１３４號"
    },
    "EnInfo": {
      "Region": "Kaohsiung-Pingtung Region",
      "County": "Kaohsiung City",
      "District": "Lingya District",
      "Name": "Kaohsiung Municipal Min-Sheng Hospita",
      "Address": "No. 134, Kaixuan 2nd Road, Lingya District, Kaohsiung City, 802"
    },
    "Telephone": "07-7222105",
    "Position": {
      "Longitude": 120.323592,
      "Latitude": 22.626657
    }
  },
  {
    "Code": "0502080015",
    "ZhInfo": {
      "Region": "高屏區",
      "County": "高雄市",
      "District": "苓雅區",
      "Name": "國軍高雄總醫院附設民眾診療服務處",
      "Address": "高雄市苓雅區建軍路５號"
    },
    "EnInfo": {
      "Region": "Kaohsiung-Pingtung Region",
      "County": "Kaohsiung City",
      "District": "Lingya District",
      "Name": "Kaohsiung Armed Forces General Hospital",
      "Address": "No. 5, Jianjun Rd, Lingya District, Kaohsiung City, 802"
    },
    "Telephone": "07-7496751",
    "Position": {
      "Longitude": 120.34114,
      "Latitude": 22.626236
    }
  },
  {
    "Code": "1502040021",
    "ZhInfo": {
      "Region": "高屏區",
      "County": "高雄市",
      "District": "楠梓區",
      "Name": "健仁醫院",
      "Address": "高雄市楠梓區楠陽路１３６號朝明路１３０巷７弄１號１-５樓"
    },
    "EnInfo": {
      "Region": "Kaohsiung-Pingtung Region",
      "County": "Kaohsiung City",
      "District": "Nanzih District",
      "Name": "Jiannren Hospital",
      "Address": "No. 136, Nanyang Road, Nanzih District, Kaohsiung City, 811"
    },
    "Telephone": "07-3517166",
    "Position": {
      "Longitude": 120.328988,
      "Latitude": 22.72362
    }
  },
  {
    "Code": "0102020011",
    "ZhInfo": {
      "Region": "高屏區",
      "County": "高雄市",
      "District": "鼓山區",
      "Name": "高雄市立聯合醫院",
      "Address": "高雄市鼓山區中華一路976號"
    },
    "EnInfo": {
      "Region": "Kaohsiung-Pingtung Region",
      "County": "Kaohsiung City",
      "District": "Gushan District",
      "Name": "Kaohsiung Municipal United Hospital",
      "Address": "No. 976, Zhonghua 1st Road, Gushan District, Kaohsiung City"
    },
    "Telephone": "07-5552565",
    "Position": {
      "Longitude": 120.291194,
      "Latitude": 22.654927
    }
  },
  {
    "Code": "0142030019",
    "ZhInfo": {
      "Region": "高屏區",
      "County": "高雄市",
      "District": "旗山區",
      "Name": "衛生福利部旗山醫院",
      "Address": "高雄市旗山區中學路６０號"
    },
    "EnInfo": {
      "Region": "Kaohsiung-Pingtung Region",
      "County": "Kaohsiung City",
      "District": "Qishan District",
      "Name": "Cishan Hospital, Ministry of Health and Welfare",
      "Address": "No. 60, Zhongxue Road, Qishan District, Kaohsiung City"
    },
    "Telephone": "07-6613811",
    "Position": {
      "Longitude": 120.483264,
      "Latitude": 22.880796
    }
  },
  {
    "Code": "0102070020",
    "ZhInfo": {
      "Region": "高屏區",
      "County": "高雄市",
      "District": "前金區",
      "Name": "高雄市立大同醫院(委託財團法人私立高雄醫學大學附設中和紀念醫院經營)",
      "Address": "高雄市前金區中華三路68號"
    },
    "EnInfo": {
      "Region": "Kaohsiung-Pingtung Region",
      "County": "Kaohsiung City",
      "District": "Qianjin District",
      "Name": "Kaohsiung Municipal Da-Tung Hospital",
      "Address": "No. 68, Zhonghua 3rd Road, Qianjin District, Kaohsiung City, 801"
    },
    "Telephone": "07-2911101",
    "Position": {
      "Longitude": 120.296938,
      "Latitude": 22.62715
    }
  },
  {
    "Code": "1542010052",
    "ZhInfo": {
      "Region": "高屏區",
      "County": "高雄市",
      "District": "鳳山區",
      "Name": "大東醫院",
      "Address": "高雄市鳳山區光遠路171-2號"
    },
    "EnInfo": {
      "Region": "Kaohsiung-Pingtung Region",
      "County": "Kaohsiung City",
      "District": "Fengshan District",
      "Name": "Da-Dong Hospital",
      "Address": "No. 171-2, Guangyuan Road, Fengshan District, Kaohsiung City, 830"
    },
    "Telephone": "07-7463762",
    "Position": {
      "Longitude": 120.362057,
      "Latitude": 22.625364
    }
  },
  {
    "Code": "1542050056",
    "ZhInfo": {
      "Region": "高屏區",
      "County": "高雄市",
      "District": "林園區",
      "Name": "建佑醫院",
      "Address": "高雄市林園區東林西路358號B1-6樓、360號B1-6樓、362號B1-6樓、364巷10號B1-6樓、399號1-4樓、407巷7號1-3樓、364巷10-2號1-2樓"
    },
    "EnInfo": {
      "Region": "Kaohsiung-Pingtung Region",
      "County": "Kaohsiung City",
      "District": "Linyuan District",
      "Name": "Chien-Yu Hospital",
      "Address": "No. 360, Donglin West Road, Linyuan District, Kaohsiung City, 832"
    },
    "Telephone": "07-6437901",
    "Position": {
      "Longitude": 120.38668,
      "Latitude": 22.503832
    }
  },
  {
    "Code": "1107350015",
    "ZhInfo": {
      "Region": "高屏區",
      "County": "高雄市",
      "District": "苓雅區",
      "Name": "天主教聖功醫療財團法人聖功醫院",
      "Address": "高雄市苓雅區建國一路352號"
    },
    "EnInfo": {
      "Region": "Kaohsiung-Pingtung Region",
      "County": "Kaohsiung City",
      "District": "Lingya District",
      "Name": "St. Joseph Hospital",
      "Address": "No. 352, Jianguo 1st Road, Lingya District, Kaohsiung City, 802"
    },
    "Telephone": "07-2238153",
    "Position": {
      "Longitude": 120.323966,
      "Latitude": 22.63316
    }
  },
  {
    "Code": "0942020019",
    "ZhInfo": {
      "Region": "高屏區",
      "County": "高雄市",
      "District": "岡山區",
      "Name": "高雄市立岡山醫院（委託秀傳醫療社團法人經營）",
      "Address": "高雄市岡山區壽天路12號"
    },
    "EnInfo": {
      "Region": "Kaohsiung-Pingtung Region",
      "County": "Kaohsiung City",
      "District": "Gangshan District",
      "Name": "Kaohsiung Municipal Gangshan Hospital",
      "Address": "No. 12, Shoutian Road, Gangshan District, Kaohsiung City, 820"
    },
    "Telephone": "07-6240686",
    "Position": {
      "Longitude": 120.294443,
      "Latitude": 22.796612
    }
  },
  {
    "Code": "1142010518",
    "ZhInfo": {
      "Region": "高屏區",
      "County": "高雄市",
      "District": "鳳山區",
      "Name": "高雄市立鳳山醫院（委託長庚醫療財團法人經營）",
      "Address": "高雄市鳳山區經武路42號"
    },
    "EnInfo": {
      "Region": "Kaohsiung-Pingtung Region",
      "County": "Kaohsiung City",
      "District": "Fengshan District",
      "Name": "Kaohsiung Municipal Feng-Shan Hospital",
      "Address": "No. 42, Jingwu Rd, Fengshan District, Kaohsiung City, 830"
    },
    "Telephone": "07-7418151",
    "Position": {
      "Longitude": 120.362974,
      "Latitude": 22.628244
    }
  },
  {
    "Code": "0542020011",
    "ZhInfo": {
      "Region": "高屏區",
      "County": "高雄市",
      "District": "岡山區",
      "Name": "國軍高雄總醫院岡山分院附設民眾診療服務處",
      "Address": "高雄市岡山區大義二路１號"
    },
    "EnInfo": {
      "Region": "Kaohsiung-Pingtung Region",
      "County": "Kaohsiung City",
      "District": "Gangshan District",
      "Name": "Kaohsiung Armed Forces General Hospital Gangshan Branch",
      "Address": "No. 1, Dayi 2nd Road, Gangshan District, Kaohsiung City, 820"
    },
    "Telephone": "07-6250919#1099",
    "Position": {
      "Longitude": 120.285874,
      "Latitude": 22.789456
    }
  },
  {
    "Code": "1107120017",
    "ZhInfo": {
      "Region": "高屏區",
      "County": "高雄市",
      "District": "燕巢區",
      "Name": "義大醫療財團法人義大癌治療醫院",
      "Address": "高雄市燕巢區角宿里義大路1號 急診戶外採檢站"
    },
    "EnInfo": {
      "Region": "Kaohsiung-Pingtung Region",
      "County": "Kaohsiung City",
      "District": "Yanchao District",
      "Name": "E-DA cancer Hospital",
      "Address": "No. 1, Yida Road, Yanchao District, Kaohsiung City, 824"
    },
    "Telephone": "0978-060259 ",
    "Position": {
      "Longitude": 120.364996,
      "Latitude": 22.766107
    }
  },
  {
    "Code": "1307370011",
    "ZhInfo": {
      "Region": "高屏區",
      "County": "高雄市",
      "District": "旗津區",
      "Name": "高雄市立旗津醫院(委託財團法人私立高雄醫學大學經營)",
      "Address": "高雄市旗津區旗港路33號1樓(急診室)"
    },
    "EnInfo": {
      "Region": "Kaohsiung-Pingtung Region",
      "County": "Kaohsiung City",
      "District": "Qijin District",
      "Name": "Kaohsiung Municipal CiJin Hospital",
      "Address": "No. 33, Qigang Road, Qijin District, Kaohsiung City, 805"
    },
    "Telephone": "07-5711188",
    "Position": {
      "Longitude": 120.285113,
      "Latitude": 22.59021
    }
  },
  {
    "Code": "1542011282",
    "ZhInfo": {
      "Region": "高屏區",
      "County": "高雄市",
      "District": "鳳山區",
      "Name": "杏和醫院",
      "Address": "高雄市鳳山區五甲二路385號、387號、389號、391號B1-9樓、470號1樓"
    },
    "EnInfo": {
      "Region": "Kaohsiung-Pingtung Region",
      "County": "Kaohsiung City",
      "District": "Fengshan District",
      "Name": "Shing-Hou Hospital",
      "Address": "No. 389, Wujia 2nd Road, Fengshan District, Kaohsiung City, 830"
    },
    "Telephone": "07-7613111",
    "Position": {
      "Longitude": 120.335627,
      "Latitude": 22.597673
    }
  },
  {
    "Code": "1107320017",
    "ZhInfo": {
      "Region": "高屏區",
      "County": "高雄市",
      "District": "三民區",
      "Name": "義大醫療財團法人義大大昌醫院",
      "Address": "高雄市三民區大昌一路305號"
    },
    "EnInfo": {
      "Region": "Kaohsiung-Pingtung Region",
      "County": "Kaohsiung City",
      "District": "Sanmin District",
      "Name": "E-DA Dachang Hospital",
      "Address": "No. 305, Dachang 1st Road, Sanmin District, Kaohsiung City, 807"
    },
    "Telephone": "07-5599123",
    "Position": {
      "Longitude": 120.3199,
      "Latitude": 22.657727
    }
  },
  {
    "Code": "1502110064",
    "ZhInfo": {
      "Region": "高屏區",
      "County": "高雄市",
      "District": "小港區",
      "Name": "安泰醫院",
      "Address": "高雄市小港區學府路111號"
    },
    "EnInfo": {
      "Region": "Kaohsiung-Pingtung Region",
      "County": "Kaohsiung City",
      "District": "Xiaogang District",
      "Name": "Antai Communtiy Hosptial",
      "Address": "No. 111, Xuefu Rd., Xiaogang Dist., Kaohsiung City 812, Taiwan (R.O.C.)"
    },
    "Telephone": "07-8017856",
    "Position": {
      "Longitude": 120.3617305505,
      "Latitude": 22.56540243451
    }
  },
  {
    "Code": "0643130018",
    "ZhInfo": {
      "Region": "高屏區",
      "County": "屏東縣",
      "District": "內埔鄉",
      "Name": "高雄榮民總醫院屏東分院",
      "Address": "屏東縣內埔鄉龍潭村昭勝路安平一巷一號"
    },
    "EnInfo": {
      "Region": "Kaohsiung-Pingtung Region",
      "County": "Pingtung County",
      "District": "Neipu Township",
      "Name": "Kaohsiung Veterans General Hospital Pingtung Branch",
      "Address": "No. 1, Anping 1st Lane, Zhaosheng Road, Neipu Township, Pingtung County 912"
    },
    "Telephone": "08-7704115",
    "Position": {
      "Longitude": 120.599009,
      "Latitude": 22.674418
    }
  },
  {
    "Code": "0143010011",
    "ZhInfo": {
      "Region": "高屏區",
      "County": "屏東縣",
      "District": "屏東市",
      "Name": "衛生福利部屏東醫院",
      "Address": "屏東縣屏東市自由路２７０號"
    },
    "EnInfo": {
      "Region": "Kaohsiung-Pingtung Region",
      "County": "Pingtung County",
      "District": "Pingtung City",
      "Name": "Pingtung Hospital, Ministry of Health and Welfare",
      "Address": "No. 270, Ziyou Road, Pingtung City, Pingtung County, 900"
    },
    "Telephone": "08-7363011",
    "Position": {
      "Longitude": 120.495546,
      "Latitude": 22.673264
    }
  },
  {
    "Code": "1343030018",
    "ZhInfo": {
      "Region": "高屏區",
      "County": "屏東縣",
      "District": "東港鎮",
      "Name": "輔英科技大學附設醫院",
      "Address": "屏東縣東港鎮中山路５號及光復路一段318號"
    },
    "EnInfo": {
      "Region": "Kaohsiung-Pingtung Region",
      "County": "Pingtung County",
      "District": "Donggang Township",
      "Name": "Fooyin University Hospital",
      "Address": "No. 5, Zhongshan Road, Donggang Township, Pingtung County, 928"
    },
    "Telephone": "08-8323146",
    "Position": {
      "Longitude": 120.452734,
      "Latitude": 22.465199
    }
  },
  {
    "Code": "0943160012",
    "ZhInfo": {
      "Region": "高屏區",
      "County": "屏東縣",
      "District": "枋寮鄉",
      "Name": "枋寮醫療社團法人枋寮醫院",
      "Address": "屏東縣枋寮鄉安樂村中山路139號(代表號)及枋寮鄉安樂村隆山路59號"
    },
    "EnInfo": {
      "Region": "Kaohsiung-Pingtung Region",
      "County": "Pingtung County",
      "District": "Fangliao Township",
      "Name": "Fangliao General Hospital",
      "Address": "No. 139, Zhongshan Road, Fangliao Township, Pingtung County, 940"
    },
    "Telephone": "08-8789991",
    "Position": {
      "Longitude": 120.596376,
      "Latitude": 22.36395
    }
  },
  {
    "Code": "1143010012",
    "ZhInfo": {
      "Region": "高屏區",
      "County": "屏東縣",
      "District": "屏東市",
      "Name": "屏基醫療財團法人屏東基督教醫院",
      "Address": "屏東縣屏東市大連路６０號"
    },
    "EnInfo": {
      "Region": "Kaohsiung-Pingtung Region",
      "County": "Pingtung County",
      "District": "Pingtung City",
      "Name": "Pingtung Christian Hospital",
      "Address": "No. 60, Dalian Road, Pingtung City, Pingtung County, 90053"
    },
    "Telephone": "08-7368686",
    "Position": {
      "Longitude": 120.502626,
      "Latitude": 22.682151
    }
  },
  {
    "Code": "1543010109",
    "ZhInfo": {
      "Region": "高屏區",
      "County": "屏東縣",
      "District": "屏東市",
      "Name": "國仁醫院",
      "Address": "屏東縣屏東市民生東路12-2號"
    },
    "EnInfo": {
      "Region": "Kaohsiung-Pingtung Region",
      "County": "Pingtung County",
      "District": "Pingtung City",
      "Name": "Golden Hospital",
      "Address": "No. 12-2, Minsheng E Rd, Pingtung City, Pingtung County, 900"
    },
    "Telephone": "08-7223000",
    "Position": {
      "Longitude": 120.514572,
      "Latitude": 22.658334
    }
  },
  {
    "Code": "0543010019",
    "ZhInfo": {
      "Region": "高屏區",
      "County": "屏東縣",
      "District": "屏東市",
      "Name": "國軍高雄總醫院附設屏東民眾診療服務處",
      "Address": "屏東縣屏東市大湖路５８巷２２號"
    },
    "EnInfo": {
      "Region": "Kaohsiung-Pingtung Region",
      "County": "Pingtung County",
      "District": "Pingtung City",
      "Name": "Kaohsiung Armed Forces General Hospital Pingtung Branch",
      "Address": "No. 22, Lane 58, Dahu Road, Pingtung City, Pingtung County, 900"
    },
    "Telephone": "08-7560756",
    "Position": {
      "Longitude": 120.487574,
      "Latitude": 22.633503
    }
  },
  {
    "Code": "0943010017",
    "ZhInfo": {
      "Region": "高屏區",
      "County": "屏東縣",
      "District": "屏東市",
      "Name": "寶建醫療社團法人寶建醫院",
      "Address": "屏東縣屏東市中山路123號"
    },
    "EnInfo": {
      "Region": "Kaohsiung-Pingtung Region",
      "County": "Pingtung County",
      "District": "Pingtung City",
      "Name": "Paochien Hospital",
      "Address": "No. 123, Zhongshan Road, Pingtung City, Pingtung County, 900"
    },
    "Telephone": "08-7665995",
    "Position": {
      "Longitude": 120.484301,
      "Latitude": 22.681631
    }
  },
  {
    "Code": "1143040010",
    "ZhInfo": {
      "Region": "高屏區",
      "County": "屏東縣",
      "District": "恆春鎮",
      "Name": "恆基醫療財團法人恆春基督教醫院",
      "Address": "屏東縣恆春鎮山腳里恆西路21號"
    },
    "EnInfo": {
      "Region": "Kaohsiung-Pingtung Region",
      "County": "Pingtung County",
      "District": "Hengchun Township",
      "Name": "Heng Chun Christian Hospital",
      "Address": "No. 21, Hengxi Road, Hengchun Township, Pingtung County, 946"
    },
    "Telephone": "08-8892293",
    "Position": {
      "Longitude": 120.741104,
      "Latitude": 22.002365
    }
  },
  {
    "Code": "0143040019",
    "ZhInfo": {
      "Region": "高屏區",
      "County": "屏東縣",
      "District": "恆春鎮",
      "Name": "衛生福利部恆春旅遊醫院",
      "Address": "屏東縣恆春鎮山腳里恆南路１８８號"
    },
    "EnInfo": {
      "Region": "Kaohsiung-Pingtung Region",
      "County": "Pingtung County",
      "District": "Hengchun Township",
      "Name": "Hengchun Tourism Hospital, Ministry of Health and Welfare",
      "Address": "No. 188, Hengnan Road, Hengchun Township, Pingtung County, 946"
    },
    "Telephone": "08-8892704",
    "Position": {
      "Longitude": 120.744829,
      "Latitude": 21.999154
    }
  },
  {
    "Code": "1543110033",
    "ZhInfo": {
      "Region": "高屏區",
      "County": "屏東縣",
      "District": "高樹鄉",
      "Name": "大新醫院",
      "Address": "屏東縣高樹鄉長榮村興中路208號"
    },
    "EnInfo": {
      "Region": "Kaohsiung-Pingtung Region",
      "County": "Pingtung County",
      "District": "Gaoshu Township",
      "Name": "Daxin Hospital",
      "Address": "No. 208, Xingzhong Road, Gaoshu Township, Pingtung County, 906"
    },
    "Telephone": "08-7962033",
    "Position": {
      "Longitude": 120.599646,
      "Latitude": 22.823792
    }
  },
  {
    "Code": "0943020013",
    "ZhInfo": {
      "Region": "高屏區",
      "County": "屏東縣",
      "District": "潮州鎮",
      "Name": "安泰醫療社團法人潮州安泰醫院",
      "Address": "屏東縣潮州鎮三星里四維路162及193號"
    },
    "EnInfo": {
      "Region": "Kaohsiung-Pingtung Region",
      "County": "Pingtung County",
      "District": "Chaozhou Township",
      "Name": "Antai Medical Care Cooperation Chaozhou Antai Hospital",
      "Address": "No. 162 and 193, Siwei Road, Chaozhou Township, Pingtung County, 920"
    },
    "Telephone": "08-7800888",
    "Position": {
      "Longitude": 120.546964,
      "Latitude": 22.554031
    }
  },
  {
    "Code": "0943040015",
    "ZhInfo": {
      "Region": "高屏區",
      "County": "屏東縣",
      "District": "恆春鎮",
      "Name": "南門醫療社團法人南門醫院",
      "Address": "屏東縣恆春鎮南門路10號"
    },
    "EnInfo": {
      "Region": "Kaohsiung-Pingtung Region",
      "County": "Pingtung County",
      "District": "Hengchun Township",
      "Name": "Nan Men Hospital",
      "Address": "No. 10, Nanmen Rd., Hengchun Township, Pingtung County 946, Taiwan (R.O.C.)"
    },
    "Telephone": "08-8894568 ",
    "Position": {
      "Longitude": 120.7453691,
      "Latitude": 22.00095622
    }
  },
  {
    "Code": "2344060011",
    "ZhInfo": {
      "Region": "高屏區",
      "County": "澎湖縣",
      "District": "七美鄉",
      "Name": "七美鄉衛生所",
      "Address": "澎湖縣七美鄉中和村埔內54號"
    },
    "EnInfo": {
      "Region": "Kaohsiung-Pingtung Region",
      "County": "Penghu County",
      "District": "Qimei Township",
      "Name": "Qimei Township Health Center",
      "Address": "No.54, Punei, Zhonghe Village, Qimei Township, Penghu County"
    },
    "Telephone": "06-9971005 ",
    "Position": {
      "Longitude": 119.430963,
      "Latitude": 23.204103
    }
  },
  {
    "Code": "2344030031",
    "ZhInfo": {
      "Region": "高屏區",
      "County": "澎湖縣",
      "District": "白沙鄉",
      "Name": "吉貝衛生所",
      "Address": "澎湖縣白沙鄉吉貝村8－13號"
    },
    "EnInfo": {
      "Region": "Kaohsiung-Pingtung Region",
      "County": "Penghu County",
      "District": "Baisha Township",
      "Name": "Jibei Health Center",
      "Address": "No. 8-13, Jibei Village, Baisha Township, Penghu County 884"
    },
    "Telephone": "06-9911430",
    "Position": {
      "Longitude": 119.610071,
      "Latitude": 23.740119
    }
  },
  {
    "Code": "2344030022",
    "ZhInfo": {
      "Region": "高屏區",
      "County": "澎湖縣",
      "District": "白沙鄉",
      "Name": "鳥嶼衛生所",
      "Address": "澎湖縣白沙鄉鳥嶼漁港新村3號"
    },
    "EnInfo": {
      "Region": "Kaohsiung-Pingtung Region",
      "County": "Penghu County",
      "District": "Baisha Township",
      "Name": "Niaoyu Health Center",
      "Address": "No. 3, Yugang New Residential Quarter, Niaoyu, Baisha Township, Penghu County 884,"
    },
    "Telephone": "06-9916092",
    "Position": {
      "Longitude": 119.660087,
      "Latitude": 23.660035
    }
  },
  {
    "Code": "0144010015",
    "ZhInfo": {
      "Region": "高屏區",
      "County": "澎湖縣",
      "District": "馬公市",
      "Name": "衛生福利部澎湖醫院",
      "Address": "澎湖縣馬公市中正路10號"
    },
    "EnInfo": {
      "Region": "Kaohsiung-Pingtung Region",
      "County": "Penghu County",
      "District": "Magong City",
      "Name": "Penghu Hospital, Ministry of Health and Welfare",
      "Address": "No. 10, Zhongzheng Road, Magong City, Penghu County, 880"
    },
    "Telephone": "06-9261151 ",
    "Position": {
      "Longitude": 119.565423,
      "Latitude": 23.564553
    }
  },
  {
    "Code": "2344050024",
    "ZhInfo": {
      "Region": "高屏區",
      "County": "澎湖縣",
      "District": "望安鄉",
      "Name": "將軍衛生所",
      "Address": "澎湖縣望安鄉將軍村12鄰將軍澳1之3號"
    },
    "EnInfo": {
      "Region": "Kaohsiung-Pingtung Region",
      "County": "Penghu County",
      "District": "Wangan Township",
      "Name": "Jiangjun Health Center",
      "Address": "No. 1-3, Jiangjun'ao, Jiangjun Village, Wangan Township, Penghu County"
    },
    "Telephone": "06-9902066",
    "Position": {
      "Longitude": 119.521637,
      "Latitude": 23.361397
    }
  },
  {
    "Code": "2344050015",
    "ZhInfo": {
      "Region": "高屏區",
      "County": "澎湖縣",
      "District": "望安鄉",
      "Name": "花嶼衛生室",
      "Address": "澎湖縣望安鄉花嶼5號"
    },
    "EnInfo": {
      "Region": "Kaohsiung-Pingtung Region",
      "County": "Penghu County",
      "District": "Wangan Township",
      "Name": "Huayu Health Room",
      "Address": "No. 5, Huayu, Wang?\uE9F1n Township, Penghu County 882"
    },
    "Telephone": "06-9991739",
    "Position": {
      "Longitude": 119.320671,
      "Latitude": 23.403736
    }
  },
  {
    "Code": "2344050015",
    "ZhInfo": {
      "Region": "高屏區",
      "County": "澎湖縣",
      "District": "望安鄉",
      "Name": "望安鄉衛生所",
      "Address": "澎湖縣望安鄉西安村36－7號"
    },
    "EnInfo": {
      "Region": "Kaohsiung-Pingtung Region",
      "County": "Penghu County",
      "District": "Wangan Township",
      "Name": "Huayu Health Room",
      "Address": "No. 5, Huayu, Wang?\uE9F1n Township, Penghu County 882"
    },
    "Telephone": "06-9991036 ",
    "Position": {
      "Longitude": 119.497377,
      "Latitude": 23.361897
    }
  },
  {
    "Code": "0645020015",
    "ZhInfo": {
      "Region": "東區",
      "County": "花蓮縣",
      "District": "鳳林鎮",
      "Name": "臺北榮民總醫院鳳林分院",
      "Address": "花蓮縣鳳林鎮中正路一段2號"
    },
    "EnInfo": {
      "Region": "Eastern Region",
      "County": "Hualien County",
      "District": "Fenglin Township",
      "Name": "Taipei Veterans General Hospital Fenglin Branch",
      "Address": "No. 2, Section 1, Zhongzheng Road, Fenglin Township, Hualien County, 975"
    },
    "Telephone": "03-8764539 ",
    "Position": {
      "Longitude": 121.439215,
      "Latitude": 23.727428
    }
  },
  {
    "Code": "0145080011",
    "ZhInfo": {
      "Region": "東區",
      "County": "花蓮縣",
      "District": "豐濱鄉",
      "Name": "衛生福利部花蓮醫院豐濱原住民分院",
      "Address": "花蓮縣豐濱鄉光豐路41號"
    },
    "EnInfo": {
      "Region": "Eastern Region",
      "County": "Hualien County",
      "District": "Fengbin Township",
      "Name": "Hualien Hospital Fengbin Aboriginal Branch, Ministry of Health and Welfare",
      "Address": "No. 41, Guangfeng Road, Fengbin Township, Hualien County, 977"
    },
    "Telephone": "03-8791385",
    "Position": {
      "Longitude": 121.521184,
      "Latitude": 23.601957
    }
  },
  {
    "Code": "0545040515",
    "ZhInfo": {
      "Region": "東區",
      "County": "花蓮縣",
      "District": "新城鄉",
      "Name": "國軍花蓮總醫院附設民眾診療服務處",
      "Address": "花蓮縣新城鄉嘉里路163號"
    },
    "EnInfo": {
      "Region": "Eastern Region",
      "County": "Hualien County",
      "District": "Xincheng Township",
      "Name": "Hualien Armed Forces General Hospital",
      "Address": "No. 163, Jiali Road, Xincheng Township, Hualien County, 971"
    },
    "Telephone": "03-8263151",
    "Position": {
      "Longitude": 121.6074,
      "Latitude": 24.024429
    }
  },
  {
    "Code": "1145010038",
    "ZhInfo": {
      "Region": "東區",
      "County": "花蓮縣",
      "District": "花蓮市",
      "Name": "臺灣基督教門諾會醫療財團法人門諾醫院",
      "Address": "花蓮縣花蓮市民權路４４號"
    },
    "EnInfo": {
      "Region": "Eastern Region",
      "County": "Hualien County",
      "District": "Hualien City",
      "Name": "Mennonite Christian Hospital",
      "Address": "No. 44, Minquan Road, Hualien City, Hualien County, 970"
    },
    "Telephone": "03-8241234",
    "Position": {
      "Longitude": 121.626753,
      "Latitude": 23.988335
    }
  },
  {
    "Code": "0645030011",
    "ZhInfo": {
      "Region": "東區",
      "County": "花蓮縣",
      "District": "玉里鎮",
      "Name": "臺北榮民總醫院玉里分院",
      "Address": "花蓮縣玉里鎮新興街９１號"
    },
    "EnInfo": {
      "Region": "Eastern Region",
      "County": "Hualien County",
      "District": "Yuli Township",
      "Name": "Taipei Veterans General Hospital Yuli Branch",
      "Address": "No. 91, Xinxing Street, Yuli Township, Hualien County, 981"
    },
    "Telephone": "03-8883141 ",
    "Position": {
      "Longitude": 121.312031,
      "Latitude": 23.339213
    }
  },
  {
    "Code": "0145010019",
    "ZhInfo": {
      "Region": "東區",
      "County": "花蓮縣",
      "District": "花蓮市",
      "Name": "衛生福利部花蓮醫院",
      "Address": "花蓮縣花蓮市中正路600號"
    },
    "EnInfo": {
      "Region": "Eastern Region",
      "County": "Hualien County",
      "District": "Hualien City",
      "Name": "Hualien Hospital, Ministry of Health and Welfare",
      "Address": "No. 600, Zhongzheng Road, Hualien City, Hualien County, 970"
    },
    "Telephone": "03-8358141 ",
    "Position": {
      "Longitude": 121.611421,
      "Latitude": 23.979207
    }
  },
  {
    "Code": "1145030012",
    "ZhInfo": {
      "Region": "東區",
      "County": "花蓮縣",
      "District": "玉里鎮 ",
      "Name": "佛教慈濟醫療財團法人玉里慈濟醫院 ",
      "Address": "花蓮縣玉里鎮民權街1－1號 "
    },
    "EnInfo": {
      "Region": "Eastern Region",
      "County": "Hualien County",
      "District": "Yuli Township",
      "Name": "Buddhist Tzu Chi Medical Foundation Yuli Tzu Chi Hospital ",
      "Address": "No. 1-1, Minquan St., Yuli Township, Hualien County 981, Taiwan (R.O.C.)"
    },
    "Telephone": "03-8882718 ",
    "Position": {
      "Longitude": 121.318595223339,
      "Latitude": 23.3349284733081
    }
  },
  {
    "Code": "0146020537",
    "ZhInfo": {
      "Region": "東區",
      "County": "臺東縣",
      "District": "成功鎮",
      "Name": "衛生福利部臺東醫院成功分院",
      "Address": "臺東縣成功鎮中山東路32號"
    },
    "EnInfo": {
      "Region": "Eastern Region",
      "County": "Taitung County",
      "District": "Chenggong Township",
      "Name": "Taitung Hospital Chenggong Branch, Ministry of Health and Welfare",
      "Address": "No. 32, Zhongshan East Road, Chenggong Township, Taitung County, 961"
    },
    "Telephone": "089-854748",
    "Position": {
      "Longitude": 121.377829,
      "Latitude": 23.099296
    }
  },
  {
    "Code": "0646010013",
    "ZhInfo": {
      "Region": "東區",
      "County": "臺東縣",
      "District": "台東市",
      "Name": "臺北榮民總醫院臺東分院",
      "Address": "臺東縣台東市更生路1000號"
    },
    "EnInfo": {
      "Region": "Eastern Region",
      "County": "Taitung County",
      "District": "Taitung City",
      "Name": "Taipei Veterans General Hospital Taitung Branch",
      "Address": "No. 1000, Gengsheng Road, Taitung City, Taitung County, 950"
    },
    "Telephone": "089-222528",
    "Position": {
      "Longitude": 121.132431,
      "Latitude": 22.772346
    }
  },
  {
    "Code": "1146030516",
    "ZhInfo": {
      "Region": "東區",
      "County": "臺東縣",
      "District": "關山鎮",
      "Name": "佛教慈濟醫療財團法人關山慈濟醫院",
      "Address": "臺東縣關山鎮和平路１２５之５號"
    },
    "EnInfo": {
      "Region": "Eastern Region",
      "County": "Taitung County",
      "District": "Guanshan Township",
      "Name": "Buddhist Tzu Chi Medical Foundation Kuanshan Tzu Chi Hospital",
      "Address": "No. 125-5, Heping Road, Guanshan Township, Taitung County, 956"
    },
    "Telephone": "089-814880",
    "Position": {
      "Longitude": 121.166766,
      "Latitude": 23.057281
    }
  },
  {
    "Code": "1146010032",
    "ZhInfo": {
      "Region": "東區",
      "County": "臺東縣",
      "District": "台東市",
      "Name": "東基醫療財團法人台東基督教醫院",
      "Address": "臺東縣台東市開封街３５０號"
    },
    "EnInfo": {
      "Region": "Eastern Region",
      "County": "Taitung County",
      "District": "Taitung City",
      "Name": "Taitung Christian Medical Foundation, Taitung Christian Hospital",
      "Address": "No. 350, Kaifeng St, Taitung City, Taitung County, 950"
    },
    "Telephone": "089-960888",
    "Position": {
      "Longitude": 121.146016,
      "Latitude": 22.763821
    }
  },
  {
    "Code": "0146010013",
    "ZhInfo": {
      "Region": "東區",
      "County": "臺東縣",
      "District": "台東市",
      "Name": "衛生福利部臺東醫院",
      "Address": "臺東縣台東市五權街１號"
    },
    "EnInfo": {
      "Region": "Eastern Region",
      "County": "Taitung County",
      "District": "Taitung City",
      "Name": "Taitung Hospital, Ministry of Health and Welfare",
      "Address": "No. 1, Wuquan Street, Taitung City, Taitung County, 950"
    },
    "Telephone": "089-324112 ",
    "Position": {
      "Longitude": 121.150649,
      "Latitude": 22.757025
    }
  },
  {
    "Code": "1146010041",
    "ZhInfo": {
      "Region": "東區",
      "County": "臺東縣",
      "District": "台東市",
      "Name": "天主教花蓮教區醫療財團法人台東聖母醫院",
      "Address": "臺東縣台東市杭州街2號"
    },
    "EnInfo": {
      "Region": "Eastern Region",
      "County": "Taitung County",
      "District": "Taitung City",
      "Name": "Catholic Hualien Diocese Medical Foundation Taitung St. Mary' s Hospital",
      "Address": "No. 2, Hangzhou Street, Taitung City, Taitung County, 950"
    },
    "Telephone": "089-322833",
    "Position": {
      "Longitude": 121.146387662787,
      "Latitude": 22.7577577024614
    }
  },
  {
    "Code": "0291010010",
    "ZhInfo": {
      "Region": "台北區",
      "County": "連江縣",
      "District": "南竿鄉",
      "Name": "連江縣立醫院",
      "Address": "連江縣南竿鄉復興村217號"
    },
    "EnInfo": {
      "Region": "Taipei Region",
      "County": "Lienchiang County",
      "District": "Nangan Township",
      "Name": "Lienchiang County Hospital",
      "Address": "No. 217, Fuxing Village, Nangan Township, Lienchiang County 209"
    },
    "Telephone": "083-623995 ",
    "Position": {
      "Longitude": 119.948945,
      "Latitude": 26.161011
    }
  },
  {
    "Code": "2391020010",
    "ZhInfo": {
      "Region": "台北區",
      "County": "連江縣",
      "District": "北竿鄉",
      "Name": "北竿衛生所",
      "Address": "連江縣北竿鄉塘岐村25號"
    },
    "EnInfo": {
      "Region": "Taipei Region",
      "County": "Lienchiang County",
      "District": "Beigan Township",
      "Name": "Bei-Gan Health Center",
      "Address": "No. 25, Tangqi Village, Beigan Township, Lienchiang County 210"
    },
    "Telephone": "083-655592 ",
    "Position": {
      "Longitude": 119.9963,
      "Latitude": 26.223229
    }
  },
  {
    "Code": "2391040012",
    "ZhInfo": {
      "Region": "台北區",
      "County": "連江縣",
      "District": "東引鄉",
      "Name": "東引衛生所",
      "Address": "連江縣東引鄉中柳村123號"
    },
    "EnInfo": {
      "Region": "Taipei Region",
      "County": "Lienchiang County",
      "District": "Dongyin Township",
      "Name": "Dong-In Health Center",
      "Address": "No. 123, Zhongliu Village, Dongyin Township, Lienchiang County 212"
    },
    "Telephone": "083-677206 ",
    "Position": {
      "Longitude": 120.490658,
      "Latitude": 26.367287
    }
  },
  {
    "Code": "2391030016",
    "ZhInfo": {
      "Region": "台北區",
      "County": "連江縣",
      "District": "莒光鄉",
      "Name": "西莒衛生所",
      "Address": "連江縣莒光鄉青帆村14－1號"
    },
    "EnInfo": {
      "Region": "Taipei Region",
      "County": "Lienchiang County",
      "District": "Juguang Township",
      "Name": "Hsichu Health Center",
      "Address": "No. 14-1, Qingfan Village, Juguang Township, Lienchiang County 211"
    },
    "Telephone": "083-689122 ",
    "Position": {
      "Longitude": 119.937967,
      "Latitude": 25.967984
    }
  },
  {
    "Code": "2391030026",
    "ZhInfo": {
      "Region": "台北區",
      "County": "連江縣",
      "District": "莒光鄉",
      "Name": "東莒衛生所",
      "Address": "連江縣莒光鄉大坪村30－1號"
    },
    "EnInfo": {
      "Region": "Taipei Region",
      "County": "Lienchiang County",
      "District": "Juguang Township",
      "Name": "Juguang Health Center",
      "Address": "No. 30-1, Daping Village, Juguang Township, Lienchiang County 211"
    },
    "Telephone": "083-689038 ",
    "Position": {
      "Longitude": 119.976883,
      "Latitude": 25.958155
    }
  },
  {
    "Code": "0141270019",
    "ZhInfo": {
      "Region": "南區",
      "County": "臺南市",
      "District": "東區",
      "Name": "衛生福利部胸腔病院-大同院區",
      "Address": "臺南市東區大同路一段69號"
    },
    "EnInfo": {
      "Region": "Southern Region",
      "County": "Tainan City",
      "District": "Rende District",
      "Name": "Chest Hospital, Ministry of Health and Welfare",
      "Address": "No. 864, Zhongshan Road, Rende District, Tainan City, 717"
    },
    "Telephone": "06-2705911",
    "Position": {
      "Longitude": 120.211597,
      "Latitude": 22.987205
    }
  },
  {
    "Code": "2346110014",
    "ZhInfo": {
      "Region": "東區",
      "County": "臺東縣",
      "District": "綠島鄉",
      "Name": "臺東縣綠島鄉衛生所",
      "Address": "臺東縣綠島鄉中寮村1－1號"
    },
    "EnInfo": {
      "Region": "Eastern Region",
      "County": "Taitung County",
      "District": "Ludao Township",
      "Name": "Ludao Township Health Center",
      "Address": "No. 1-1, Zhongliao Village, Ludao Township, Taitung County 951"
    },
    "Telephone": "089-672511",
    "Position": {
      "Longitude": 121.469647,
      "Latitude": 22.673159
    }
  },
  {
    "Code": "2346160014",
    "ZhInfo": {
      "Region": "東區",
      "County": "臺東縣",
      "District": "蘭嶼鄉",
      "Name": "臺東縣蘭嶼鄉衛生所",
      "Address": "臺東縣蘭嶼鄉紅頭村36號"
    },
    "EnInfo": {
      "Region": "Eastern Region",
      "County": "Taitung County",
      "District": "Lanyu Township",
      "Name": "Lanyu Township Health Center",
      "Address": "No. 36, Hongtou Village, Lanyu Township, Taitung County 952"
    },
    "Telephone": "089-732575",
    "Position": {
      "Longitude": 121.554739,
      "Latitude": 22.024836
    }
  },
  {
    "Code": "0190030516",
    "ZhInfo": {
      "Region": "台北區",
      "County": "金門縣",
      "District": "烈嶼鄉",
      "Name": "衛生福利部金門醫院-烈嶼院區",
      "Address": "金門縣烈嶼鄉后井37號"
    },
    "EnInfo": {
      "Region": "Taipei Region",
      "County": "Kinmen County",
      "District": "Jinhu Township",
      "Name": "Kinmen Hospital, Ministry of Health and Welfare",
      "Address": "No. 2, Fuxing Road, Jinhu Township, Kinmen County 891"
    },
    "Telephone": "082-364268",
    "Position": {
      "Longitude": 118.242498,
      "Latitude": 24.4309
    }
  }
]